"id","uf","municipio","zona","lat","long","codTSE"
"89095-022","RS","Serafina Corrêa","22","-28.7107970706117","-51.93570860994029","89095"
"07749-029","MA","Jatobá","29","-5.81966693658443","-44.2199147698158","07749"
"58220-174","RJ","Areal","174","-22.2369120029052","-43.1010698051683","58220"
"21253-044","PB","Pedras de Fogo","44","-7.40153849975862","-35.1131779827065","21253"
"60011-229","RJ","Rio de Janeiro","229","-22.9149683","-43.2344101","60011"
"63134-388","SP","Carapicuíba","388","-23.560221","-46.826018","63134"
"00515-015","RO","Novo Horizonte do Oeste","15","-11.7097429196397","-61.9943876627606","00515"
"48739-083","MG","Morro do Pilar","83","-19.2183422245581","-43.3748041822981","48739"
"24295-064","PE","Iati","64","-9.04570925058618","-36.8472759684337","24295"
"87670-129","RS","Nova Petrópolis","129","-29.376208868628","-51.1069539239561","87670"
"41033-009","MG","Bandeira","9","-15.8849769786589","-40.5588864205795","41033"
"75353-177","PR","Curitiba","177","-25.429955","-49.328948","75353"
"78972-149","PR","São Tomé","149","-23.5355113611021","-52.5924836675634","78972"
"73610-032","TO","Barra do Ouro","32","-7.69176659840625","-47.6871349692244","73610"
"40029-274","MG","Araporã","274","-18.4419093760791","-49.19008664470031","40029"
"51691-264","MG","Santana de Pirapama","264","-19.0068859962737","-44.0381025080678","51691"
"25593-052","PE","São Bento do Una","52","-8.519867520306651","-36.4462983615963","25593"
"27294-044","AL","Campo Grande","44","-9.95692260299842","-36.7908400521347","27294"
"31356-026","SE","Nossa Senhora Aparecida","26","-10.3946514570748","-37.4544385459973","31356"
"04090-055","PA","Almeirim","55","-1.52733880271443","-52.5768350868127","04090"
"75132-049","PR","Colombo","49","-25.292491","-49.23116599999999","75132"
"68012-231","SP","Palestina","231","-20.390587469653","-49.4337823999184","68012"
"41238-035","MG","Belo Horizonte","35","-19.937678","-43.911500","41238"
"27235-046","AL","Cacimbinhas","46","-9.405162750753551","-36.9968696260237","27235"
"18490-008","RN","São Paulo do Potengi","8","-5.89982033358664","-35.7643696369494","18490"
"40509-269","MG","Novo Oriente de Minas","269","-17.4091656803341","-41.2220966101202","40509"
"35793-024","BA","Ipiaú","24","-14.1374736708154","-39.7356541802101","35793"
"01570-006","AC","Assis Brasil","6","-10.942865680565","-69.5634591746677","01570"
"51454-025","MG","Santa Bárbara do Tugúrio","25","-21.2462083888275","-43.5589487842784","51454"
"07277-022","MA","Balsas","22","-7.53116999000001","-46.0389926733405","07277"
"49557-006","MG","Passa-Vinte","6","-22.2089768777411","-44.2310487920843","49557"
"76694-159","PR","Lupionópolis","159","-22.7519945222991","-51.65687284023999","76694"
"33871-190","BA","Brejolândia","190","-12.4866933417202","-43.9656645942921","33871"
"74357-050","PR","Araucária","50","-25.5916449992644","-49.4019396967087","74357"
"90018-039","MT","Acorizal","39","-15.197889979856","-56.3715525667098","90018"
"40991-264","MG","Baldim","264","-19.286437303571","-43.9570406413178","40991"
"94498-123","GO","Mambaí","123","-14.4875342637462","-46.1139474126744","94498"
"23833-043","PE","Catende","43","-8.670307499718421","-35.7216666573487","23833"
"86762-099","RS","Gramado dos Loureiros","99","-27.4443850206347","-52.9182179830321","86762"
"90522-022","MT","Cláudia","22","-11.5053107372794","-54.8741824477688","90522"
"53538-267","MG","Sobrália","267","-19.2355492873163","-42.0986538397189","53538"
"89109-029","RS","Canudos do Vale","29","-29.3235252954934","-52.2323826172485","89109"
"53333-190","MG","Serra dos Aimorés","190","-17.7857470177162","-40.2431685749409","53333"
"40703-094","MG","São João da Lagoa","94","-16.8520551562038","-44.3490885621947","40703"
"94994-035","TO","Novo Acordo","35","-9.968486465379559","-47.6681483922167","94994"
"25275-142","PE","Primavera","142","-8.33137608584738","-35.3539433948819","25275"
"60011-235","RJ","Rio de Janeiro","235","-22.877015","-43.421905","60011"
"16934-065","RN","Ipueira","65","-6.81555076166249","-37.1978561298861","16934"
"24538-099","PE","Itapetim","99","-7.37842852818136","-37.1884393109605","24538"
"93459-028","TO","Dois Irmãos do Tocantins","28","-9.261296709497","-49.0673386442723","93459"
"13307-067","CE","Ocara","67","-4.48506654440047","-38.5985379827902","13307"
"49212-200","MG","Ouro Preto","200","-20.3867763672491","-43.5064475197137","49212"
"58793-030","RJ","Piraí","30","-22.6287569091347","-43.8993511857657","58793"
"41238-026","MG","Belo Horizonte","26","-19.905704","-43.924268","41238"
"16497-029","RN","Carnaubais","29","-5.33978539414395","-36.8346423564497","16497"
"81582-045","SC","Bandeirante","45","-26.7689379005651","-53.64104958659","81582"
"81639-091","SC","Itapema","91","-27.0959378829199","-48.6173993861423","81639"
"60011-188","RJ","Rio de Janeiro","188","-22.849858","-43.310847","60011"
"71595-167","SP","Taciba","167","-22.3882662609409","-51.284773424105","71595"
"92215-144","GO","Anápolis","144","-16.3201519","-48.9513213","92215"
"35149-125","BA","Feira da Mata","125","-14.2105645053876","-44.283463938437","35149"
"41548-128","MG","São Domingos das Dores","128","-19.529446066682","-42.0095079969034","41548"
"02372-030","AM","Santa Isabel do Rio Negro","30","-0.416694831868121","-65.02002263951201","02372"
"25534-140","PE","Santa Maria do Cambucá","140","-7.831813425975931","-35.8852433390024","25534"
"93220-089","GO","Terezópolis de Goiás","89","-16.4789604608599","-49.09178492309209","93220"
"75000-122","PR","Itaipulândia","122","-25.1384806502357","-54.3050007423361","75000"
"70173-186","SP","Santa Bárbara d'Oeste","186","-22.7553934993264","-47.4139547662303","70173"
"82937-044","SC","Rio Fortuna","44","-28.1325913878527","-49.105093802571","82937"
"06050-002","AP","Macapá","2","0.0340239","-51.0625976","06050"
"91650-009","MS","Três Lagoas","9","-20.7994888","-51.6782034","91650"
"61174-080","SP","Altair","80","-20.5233048809838","-49.0601107542409","61174"
"34835-051","BA","Coronel João Sá","51","-10.2793953998943","-37.9329643376141","34835"
"18910-013","RN","Várzea","13","-6.34879989052301","-35.374790664391","18910"
"67938-163","SP","Osvaldo Cruz","163","-21.7970834993489","-50.8731391102635","67938"
"87971-144","RS","Planalto","144","-27.331463874696","-53.058880813139","87971"
"63550-245","SP","Corumbataí","245","-22.2189967495097","-47.6266101304082","63550"
"41327-002","MG","Pedra Bonita","2","-20.5200184899524","-42.3321344916825","41327"
"31518-003","SE","Graccho Cardoso","3","-10.228549","-37.197587","31518"
"71072-260","SP","São Paulo","260","-23.5960347","-46.6065036","71072"
"50130-082","MG","Pirajuba","82","-19.9085049080224","-48.69663806380121","50130"
"04910-078","PA","Mocajuba","78","-2.58287297318646","-49.50902346127291","04910"
"41238-333","MG","Belo Horizonte","333","-19.992161","-44.002417","41238"
"47678-161","MG","Leopoldina","161","-21.5307293638842","-42.6418441295043","47678"
"04375-087","PA","Bujaru","87","-1.5139914622507","-48.035875014396","04375"
"65951-333","SP","Jaguariúna","333","-22.7067819575251","-46.98234346628791","65951"
"25976-027","PE","Itambé","27","-7.40926385975838","-35.1106273574317","25976"
"27391-022","AL","Coité do Nóia","22","-9.638487270468049","-36.5796842002284","27391"
"04847-061","PA","Sapucaia","61","-6.94285711234712","-49.70358071188431","04847"
"48496-101","MG","Monjolos","101","-18.3236856176991","-44.1193167724144","48496"
"97012-003","DF","Brasília","3","-15.8140313","-48.0861458","97012"
"41319-004","MG","Bertópolis","4","-17.0609628116827","-40.5722458500666","41319"
"93300-033","GO","Valparaíso de Goiás","33","-16.069575256536","-47.98411135055331","93300"
"36137-172","BA","Itamaraju","172","-17.0423375991367","-39.5330398845548","36137"
"20290-075","PB","Gurinhém","75","-7.12321566820087","-35.4281860624289","20290"
"01392-009","AC","Rio Branco","9","-9.970845","-67.845294","01392"
"56936-037","ES","São Gabriel da Palha","37","-19.0219647526669","-40.52959950756","56936"
"04014-007","PA","Abaetetuba","7","-1.7234698627891","-48.88440382072301","04014"
"52230-197","MG","São Francisco de Paula","197","-20.7135317993197","-44.9826306199264","52230"
"91332-008","MT","Ponte Branca","8","-16.7676480104672","-52.8357757281924","91332"
"62430-012","SP","Borá","12","-22.270117106019","-50.54488099922101","62430"
"60011-160","RJ","Rio de Janeiro","160","-22.855133","-43.252231","60011"
"13650-103","CE","Cariús","103","-6.531127937651231","-39.4976886800605","13650"
"90832-002","MT","Guiratinga","2","-16.3483892675563","-53.7609640294195","90832"
"60011-210","RJ","Rio de Janeiro","210","-22.879441","-43.375450","60011"
"69477-314","SP","Redenção da Serra","314","-23.2726554986251","-45.5364956107389","69477"
"19160-015","PB","Logradouro","15","-6.61537142207111","-35.4432993555945","19160"
"92533-017","TO","Aurora do Tocantins","17","-12.708489860656","-46.4070829808607","92533"
"24678-124","PE","Jurema","124","-8.7196671737454","-36.1359544906229","24678"
"31151-004","SE","Boquim","4","-11.1463916300024","-37.6235734779508","31151"
"05630-008","PA","Vigia","8","-0.8555325736395512","-48.1414985852069","05630"
"48771-187","MG","Muriaé","187","-21.132046790875","-42.3610748978923","48771"
"71617-234","SP","Taguaí","234","-23.4498141178986","-49.4057711155675","71617"
"58114-095","RJ","Bom Jesus do Itabapoana","95","-21.1344974412421","-41.6776797949817","58114"
"99058-044","MT","Guarantã do Norte","44","-9.95407323332093","-54.91605731127221","99058"
"45233-324","MG","Formoso","324","-14.9517425974182","-46.239979536778","45233"
"71013-128","SP","São Luís do Paraitinga","128","-23.2218715095367","-45.30954450480949","71013"
"92045-010","TO","Buriti do Tocantins","10","-5.31353885621493","-48.223250128075","92045"
"19305-025","PB","Baraúna","25","-6.6424050350208","-36.2530413530428","19305"
"13196-066","CE","Aquiraz","66","-3.90619449987157","-38.3898029588509","13196"
"34550-082","BA","Cícero Dantas","82","-10.5921715315837","-38.3834191278696","34550"
"95575-021","GO","Portelândia","21","-17.3529241041765","-52.680683543854","95575"
"40614-111","MG","Antônio Prado de Minas","111","-21.018232058154","-42.1093426501154","40614"
"17299-020","RN","Lagoa Nova","20","-6.09766929619427","-36.4589606695817","17299"
"90646-007","MT","Nova Mutum","7","-13.8327256922854","-56.1100052480978","90646"
"61263-131","SP","Araçariguama","131","-23.4300408474803","-47.0715476361902","61263"
"41173-344","MG","Barroso","344","-21.1762869983949","-43.9753811243157","41173"
"79413-084","PR","Uraí","84","-23.2001591018425","-50.7973651802287","79413"
"12190-002","PI","Teresina","2","-5.0888806","-42.8123814","12190"
"71072-392","SP","São Paulo","392","-23.5089138","-46.4954093","71072"
"63770-222","SP","Diadema","222","-23.69251","-46.6201219","63770"
"90670-051","MT","Cuiabá","51","-15.5683083","-56.068215","90670"
"42757-113","MG","Carmésia","113","-19.0870863868602","-43.1458403032499","42757"
"87130-024","RS","Itaqui","24","-29.128636898258","-56.55713349703041","87130"
"36293-140","BA","Itapetinga","140","-15.2461671882127","-40.2473809072369","36293"
"42153-136","MG","Campanário","136","-18.2411235313766","-41.7301317866171","42153"
"74349-131","PR","Flor da Serra do Sul","131","-26.2552988451785","-53.3085976818885","74349"
"34134-171","BA","Camaçari","171","-12.813744","-38.250396","34134"
"80659-052","SC","Campo Belo do Sul","52","-27.8966573864858","-50.7619937519385","80659"
"88013-001","RS","Porto Alegre","1","-30.033616","-51.226899","88013"
"10138-095","PI","Anísio de Abreu","95","-9.17491853060953","-43.0348533320546","10138"
"64254-046","SP","Franca","46","-20.5369977","-47.39263159999999","64254"
"75353-002","PR","Curitiba","2","-25.383437","-49.222518","75353"
"56308-006","ES","Governador Lindenberg","6","-19.2528074438217","-40.4577660614079","56308"
"63452-075","SP","Conchal","75","-22.3300764473362","-47.17437574255239","63452"
"61522-152","SP","Aspásia","152","-20.158189985284","-50.7269626714191","61522"
"85715-048","RS","Cambará do Sul","48","-29.0481752726442","-50.1437653842536","85715"
"01090-004","AC","Mâncio Lima","4","-7.59322259361088","-72.9165010261308","01090"
"85499-052","RS","Bossoroca","52","-28.730724329428","-54.9098109252545","85499"
"92193-012","TO","Ananás","12","-6.362818153891969","-48.07976460619479","92193"
"66630-077","SP","Macaubal","77","-20.8013135389363","-49.9634978203421","66630"
"41580-117","MG","São Geraldo do Baixio","117","-18.9188085158378","-41.3636282368696","41580"
"53570-239","MG","Tabuleiro","239","-21.357577658801","-43.2456052646167","53570"
"08494-093","MA","Paço do Lumiar","93","-2.52806299991673","-44.0986923548405","08494"
"95630-046","GO","Quirinópolis","46","-18.4515073553176","-50.4522625218091","95630"
"93092-047","GO","Divinópolis de Goiás","47","-13.2968133664728","-46.3938887513768","93092"
"11533-004","PI","Parnaíba","4","-2.9037102","-41.7673125","11533"
"88048-022","RS","União da Serra","22","-28.7798985670349","-52.0004166642531","88048"
"26310-119","PE","Abreu e Lima","119","-7.90444898974262","-34.8991305847304","26310"
"72214-207","SP","Urupês","207","-21.200418812098","-49.2907298494467","72214"
"27375-005","AL","Chã Preta","5","-9.26142245910555","-36.2993814518778","27375"
"92169-076","GO","Morro Agudo de Goiás","76","-15.3121981478397","-50.05744713194241","92169"
"13854-027","CE","Crato","27","-7.23175278969449","-39.4083902977886","13854"
"70092-313","SP","Salto Grande","313","-22.8905072535172","-49.9810777589953","70092"
"83135-067","SC","São Bonifácio","67","-27.8964966977453","-48.92931195859621","83135"
"12386-020","PI","João Costa","20","-8.489125721653711","-42.4178485806471","12386"
"64572-153","SP","Guaraçaí","153","-21.0328813869498","-51.2091063449954","64572"
"74128-067","PR","Ângulo","67","-23.1929038643415","-51.9173646798431","74128"
"98558-107","CE","Umirim","107","-3.675561897977159","-39.3423844042955","98558"
"14095-015","CE","Icó","15","-6.403031251720999","-38.8630851788798","14095"
"00566-018","RO","Urupá","18","-11.1285452753216","-62.3706324537667","00566"
"07013-028","MA","Afonso Cunha","28","-4.13501547673418","-43.3208690039685","07013"
"80667-006","SC","Calmon","6","-26.6046771763173","-51.09663490459809","80667"
"06114-009","AP","Ferreira Gomes","9","0.853977393114796","-51.1874290460046","06114"
"40975-020","MG","Baependi","20","-21.9576108072769","-44.8903706627583","40975"
"09652-080","MA","Santa Luzia do Paruá","80","-2.54616147473104","-45.7764615615901","09652"
"78271-141","PR","Roncador","141","-24.5951071872821","-52.2760525503737","78271"
"22136-015","PB","Serra da Raiz","15","-6.685517649835209","-35.4427388368849","22136"
"41971-206","MG","Caetanópolis","206","-19.2937130275442","-44.4130373375318","41971"
"31070-004","SE","Arauá","4","-11.2645047795331","-37.6123374340696","31070"
"09610-098","MA","Açailândia","98","-4.9539357","-47.5030772","09610"
"02534-006","AM","Manacapuru","6","-3.29827803535901","-60.62058944587059","02534"
"05398-008","PA","Santo Antônio do Tauá","8","-1.15169249996203","-48.1324330748457","05398"
"20494-036","PB","Jericó","36","-6.55619499072646","-37.8086413774211","20494"
"94714-120","GO","Montes Claros de Goiás","120","-16.0047599095999","-51.4004988846889","94714"
"82872-102","SC","Rio do Oeste","102","-27.1911665172426","-49.8028622167011","82872"
"80446-066","SC","Sul Brasil","66","-26.7369362089473","-52.9642047957299","80446"
"69116-140","SP","Porangaba","140","-23.1753874986335","-48.1267674358002","69116"
"49077-162","MG","Olaria","162","-21.8647729417744","-43.9309268801853","49077"
"03123-007","RR","Pacaraima","7","4.47525934006528","-61.1473063471493","03123"
"90050-008","MT","Alto Araguaia","8","-17.3155899398596","-53.22026032998431","90050"
"81027-099","SC","Capivari de Baixo","99","-28.4490455110342","-48.96057506809409","81027"
"39330-192","BA","Terra Nova","192","-12.4030919009786","-38.6231018591955","39330"
"24996-037","PE","Palmares","37","-8.679082499718151","-35.5883359937581","24996"
"17396-042","RN","Luís Gomes","42","-6.41402814222299","-38.386420375103","17396"
"60011-011","RJ","Rio de Janeiro","11","-22.834359","-43.285456","60011"
"90530-017","MS","Caracol","17","-22.0127382885385","-57.0259387643523","90530"
"37419-035","BA","Mucuri","35","-18.0885397383187","-39.5475458898298","37419"
"02178-015","AM","Borba","15","-4.39061989132849","-59.5945590194969","02178"
"27995-027","AL","Mata Grande","27","-9.114806257346309","-37.7252240648916","27995"
"77330-032","PR","Palmas","32","-26.4814725142464","-51.9887738877128","77330"
"93130-019","TO","Conceição do Tocantins","19","-12.2172777665747","-47.29286881080701","93130"
"58939-034","RJ","Santo Antônio de Pádua","34","-21.5359771202995","-42.1779115574882","58939"
"25577-047","PE","São Benedito do Sul","47","-8.810438233909011","-35.9311226193514","25577"
"86789-040","RS","Gramado Xavier","40","-29.2699362167303","-52.57783775696651","86789"
"24090-027","PE","Ferreiros","27","-7.44549420501616","-35.2440702124351","24090"
"81396-064","SC","Ilhota","64","-26.9046251824547","-48.82501400638959","81396"
"61484-228","SP","Cajati","228","-24.7263609715055","-48.1049998090053","61484"
"71072-413","SP","São Paulo","413","-23.6346419","-46.615709","71072"
"93106-113","GO","Buriti de Goiás","113","-16.1813969759727","-50.4344347563621","93106"
"94978-054","GO","Nova Veneza","54","-16.365233192572","-49.3108981042099","94978"
"96792-023","TO","Rio Sono","23","-9.347789333813291","-47.8999416391395","96792"
"08028-086","MA","Olinda Nova do Maranhão","86","-2.99747761531086","-45.0032353744727","08028"
"45012-112","MG","Extrema","112","-22.858190071345","-46.3221617403776","45012"
"86649-033","RS","Coxilha","33","-28.1213417099943","-52.3002778295103","86649"
"38334-110","BA","Ribeira do Pombal","110","-10.8362780744198","-38.5360987874333","38334"
"90670-037","MT","Cuiabá","37","-15.611710","-56.084596","90670"
"37974-054","BA","Piritiba","54","-11.7372340014012","-40.5513277059088","37974"
"79235-017","PR","Tibagi","17","-24.5132880671366","-50.4114701228325","79235"
"06157-006","AP","Santana","6","-0.0383734790943945","-51.1728464650687","06157"
"76031-036","PR","Ipiranga","36","-25.0130228275086","-50.58124013439059","76031"
"66893-217","SP","Mauá","217","-23.6672547","-46.4557272","66893"
"92487-016","TO","Pequizeiro","16","-8.5933406541693","-48.9351798669158","92487"
"69876-190","SP","Roseira","190","-22.8968185468155","-45.3093777870655","69876"
"68675-298","SP","Pinhalzinho","298","-22.780796067842","-46.59057731893171","68675"
"66230-223","SP","Juquiá","223","-24.3207030782639","-47.63534196766221","66230"
"80055-102","SC","Agronômica","102","-27.2697161063764","-49.71836889075539","80055"
"60011-001","RJ","Rio de Janeiro","1","-22.897495","-43.185659","60011"
"38067-115","BA","Ponto Novo","115","-10.8671478309527","-40.135392845065","38067"
"40150-064","MG","Aguanil","64","-20.937432201915","-45.3894653434948","40150"
"56081-030","ES","Vila Pavão","30","-18.6208034517744","-40.6024114108213","56081"
"39985-066","BA","Sobradinho","66","-9.47080663819329","-40.7915948463624","39985"
"86894-096","RS","Guarani das Missões","96","-28.1417792565601","-54.56055592966089","86894"
"60011-189","RJ","Rio de Janeiro","189","-22.837315","-43.301955","60011"
"82678-025","SC","Porto União","25","-26.2300048973375","-51.0816046335966","82678"
"80454-002","SC","Biguaçu","2","-27.4943227426967","-48.65448892895061","80454"
"70718-273","SP","Santos","273","-23.9512468","-46.3368003","70718"
"25313-009","PE","Recife","9","-8.0193143","-34.8938934","25313"
"79057-040","PR","Sertanópolis","40","-23.0584819748784","-51.0422435334555","79057"
"58327-183","RJ","Porto Real","183","-22.4329484231549","-44.2969007349911","58327"
"76350-070","PR","Jandaia do Sul","70","-23.6011789153983","-51.6433953621984","76350"
"82716-054","SC","Praia Grande","54","-29.1957763628134","-49.960591976336","82716"
"63770-329","SP","Diadema","329","-23.6872417","-46.6193788","63770"
"33065-052","BA","Adustina","52","-10.5295715696808","-38.1155058347825","33065"
"56197-041","ES","Boa Esperança","41","-18.5387151616346","-40.3029556431013","56197"
"71510-181","SP","Suzano","181","-23.5375208","-46.3125148","71510"
"37583-119","BA","Nova Redenção","119","-12.8188675671025","-41.0688595103445","37583"
"07692-068","MA","Coroatá","68","-4.1283394","-44.130317","07692"
"30058-188","BA","Eunápolis","188","-16.3751672317454","-39.5841719409864","30058"
"42366-128","MG","São Sebastião do Anta","128","-19.5001070893414","-41.979598898526","42366"
"58149-139","RJ","Japeri","139","-22.6448185704403","-43.6537858009828","58149"
"23698-132","PE","Camocim de São Félix","132","-8.362138039790411","-35.7651947265538","23698"
"38610-145","BA","Santaluz","145","-11.253360034097","-39.3773777962667","38610"
"59250-131","RJ","Volta Redonda","131","-22.523429","-44.095013","59250"
"89079-109","RS","Selbach","109","-28.6274338058369","-52.9565252738362","89079"
"12513-062","PI","Sussuapara","62","-7.017010588598991","-41.392267730941","12513"
"36382-107","BA","Itatim","107","-12.7092465326793","-39.7037746062264","36382"
"50431-226","MG","Porteirinha","226","-15.7468377265095","-43.0285226494433","50431"
"33529-110","BA","Banzaê","110","-10.5740919354789","-38.6118696305729","33529"
"87610-075","RS","Nova Bassano","75","-28.7234686408211","-51.70323141739579","87610"
"74896-165","PR","Capitão Leônidas Marques","165","-25.479468483784","-53.6172110107619","74896"
"80926-011","SC","Ponte Alta do Norte","11","-27.16902918213111","-50.46540426776569","80926"
"17434-030","RN","Macau","30","-5.11336765014094","-36.634973181901","17434"
"73474-013","TO","Chapada de Areia","13","-10.1419885830059","-49.18310785803151","73474"
"85839-166","RS","Cândido Godói","166","-27.9513180673193","-54.7528340428941","85839"
"98493-009","AM","Uarini","9","-2.98360924259388","-65.1553456401554","98493"
"98256-055","RS","Parobé","55","-29.6317492768207","-50.8348659023274","98256"
"45535-119","MG","Governador Valadares","119","-18.8516138","-41.9479739","45535"
"92282-114","GO","Itaguari","114","-15.909093570103","-49.6097600443052","92282"
"88390-040","RS","Santa Cruz do Sul","40","-29.7182","-52.4323633","88390"
"83453-061","SC","Seara","61","-27.145697622108","-52.3028548279905","83453"
"91553-038","MT","Santo Antônio do Leverger","38","-15.8691790434606","-56.0941622007565","91553"
"12157-037","PI","Simplício Mendes","37","-7.85795729362709","-41.9109103616519","12157"
"49492-132","MG","Passabém","132","-19.3509824786016","-43.1438137394836","49492"
"65030-050","SP","Igarapava","50","-20.039612534392","-47.751066571313","65030"
"25356-028","PE","Ribeirão","28","-8.51111603972344","-35.3761308237039","25356"
"63614-227","SP","Cotia","227","-23.6025242","-46.9073029","63614"
"91278-029","MS","Pedro Gomes","29","-18.1018562336928","-54.5524458291661","91278"
"04839-100","PA","Marabá","100","-5.337867999999999","-49.10090599999999","04839"
"61506-215","SP","Campina do Monte Alegre","215","-23.5840768376209","-48.48039901993841","61506"
"14672-026","CE","Milagres","26","-7.31042779654342","-38.9431567662076","14672"
"74918-056","PR","Carlópolis","56","-23.4277239243462","-49.7187235298862","74918"
"18732-063","RN","Taboleiro Grande","63","-5.926752292055059","-38.0435675405776","18732"
"96016-094","GO","São Miguel do Araguaia","94","-13.2760243425423","-50.1638382701425","96016"
"00698-032","RO","Vale do Anari","32","-9.85139270774329","-62.1768234421278","00698"
"53295-262","MG","Serra Azul de Minas","262","-18.3622797244177","-43.1744593090578","53295"
"40487-003","MG","Naque","3","-19.2235434742802","-42.3347084488518","40487"
"15237-110","CE","Porteiras","110","-7.53574644136106","-39.1153314614829","15237"
"51675-079","MG","Santana de Cataguases","79","-21.2840280779792","-42.5546049490811","51675"
"89370-149","RS","Três Coroas","149","-29.51666097818","-50.7831258357971","89370"
"07668-101","MA","Governador Nunes Freire","101","-2.13496235992965","-45.8814811327942","07668"
"74730-150","PR","Cambira","150","-23.6006118795186","-51.5816306133721","74730"
"92258-034","GO","Anicuns","34","-16.460740618736","-49.9590680177593","92258"
"65870-061","SP","Jaboticabal","61","-21.2544714987238","-48.3203497512575","65870"
"04936-037","PA","Moju","37","-1.88588899993785","-48.7671991273719","04936"
"46914-143","MG","Jaboticatubas","143","-19.5222886175859","-43.7473336329577","46914"
"61743-075","SP","Holambra","75","-22.6417496235417","-47.0592869062413","61743"
"89494-042","RS","Tuparendi","42","-27.7540889265205","-54.47850807532731","89494"
"25070-078","PE","Parnamirim","78","-8.090138326905841","-39.5757868229726","25070"
"30970-082","BA","Heliópolis","82","-10.6752987876845","-38.2802330422697","30970"
"41238-034","MG","Belo Horizonte","34","-19.950680","-43.945651","41238"
"36277-188","BA","Itapebi","188","-15.9721666545675","-39.5285413926178","36277"
"96938-044","GO","Água Fria de Goiás","44","-14.9855352677434","-47.7822121623989","96938"
"13455-096","CE","Bela Cruz","96","-3.0551067242127","-40.1668429070243","13455"
"42188-044","MG","Guaraciama","44","-17.011527462616","-43.6687777057549","42188"
"93718-074","GO","Goianésia","74","-15.3222887520069","-49.11581015077449","93718"
"03000-004","RR","Caroebe","4","0.8726745071577861","-59.6948100736757","03000"
"96210-009","TO","Tocantinópolis","9","-6.325634375821041","-47.4274129286927","96210"
"22055-029","PB","São Sebastião do Umbuzeiro","29","-8.157118754419381","-37.0084169780022","22055"
"85553-009","RS","Caçapava do Sul","9","-30.5147432332542","-53.4875689200414","85553"
"71218-340","SP","São Vicente","340","-23.968134","-46.39063429999999","71218"
"90921-053","MT","Serra Nova Dourada","53","-12.0892718384991","-51.3995934077539","90921"
"10278-052","PI","Barro Duro","52","-5.812359707625551","-42.5133778221163","10278"
"65994-029","SP","Jambeiro","29","-23.25657686615151","-45.6936551245799","65994"
"53058-014","MG","São Vicente de Minas","14","-21.6974718368586","-44.4546835035525","53058"
"90670-001","MT","Cuiabá","1","-15.582186","-56.090833","90670"
"68756-270","SP","Piracicaba","270","-22.726503","-47.663805","68756"
"06068-010","AP","Cutias","10","0.97107805538513","-50.8016260298776","06068"
"46396-325","MG","Itacambira","325","-17.064435181195","-43.3104021870614","46396"
"40444-166","MG","Matias Cardoso","166","-14.8502838772278","-43.9178264365666","40444"
"04731-056","PA","Itupiranga","56","-5.12883702619267","-49.3244258612861","04731"
"53651-056","MG","Taquaraçu de Minas","56","-19.6738480478143","-43.6871427896688","53651"
"79359-089","PR","Umuarama","89","-23.7587297","-53.3136111","79359"
"60011-170","RJ","Rio de Janeiro","170","-22.9149683","-43.2344101","60011"
"68438-333","SP","Pedreira","333","-22.7437709993267","-46.8978020902908","68438"
"76473-084","PR","Jataizinho","84","-23.2572651208298","-50.9740548451338","76473"
"74454-058","PR","Bandeirantes","58","-23.0924804993186","-50.3718730229324","74454"
"58181-034","RJ","Aperibé","34","-21.6194217691392","-42.1049166541126","58181"
"30872-186","BA","Dias d'Ávila","186","-12.6043684164182","-38.2979935898508","30872"
"19771-075","PB","Caldas Brandão","75","-7.17175143680903","-35.3423820919597","19771"
"74969-203","PR","Virmond","203","-25.378765984394","-52.2025433047369","74969"
"38598-075","BA","Santa Inês","75","-13.298687222912","-39.8276053254776","38598"
"38318-079","BA","Ribeira do Amparo","79","-11.0391582797191","-38.4305538667121","38318"
"28231-011","AL","Palestina","11","-9.673097185336181","-37.3311364505041","28231"
"75620-136","PR","Rio Branco do Ivaí","136","-24.3202776005855","-51.3120655882648","75620"
"70890-123","SP","São Joaquim da Barra","123","-20.5831655543784","-47.8632680707133","70890"
"17353-068","RN","Lajes Pintadas","68","-6.15143207185681","-36.1184417929034","17353"
"17590-034","RN","Mossoró","34","-5.173960399999999","-37.3537388","17590"
"63215-009","SP","Castilho","9","-20.8720265534923","-51.4894070558423","63215"
"61948-010","SP","Itapirapuã Paulista","10","-24.5715534985717","-49.17216565528079","61948"
"12351-020","PI","Campo Alegre do Fidalgo","20","-8.37448038039266","-41.832013324158","12351"
"78859-200","PR","São José dos Pinhais","200","-25.5389704","-49.2059484","78859"
"27634-030","AL","Igreja Nova","30","-10.1292988368456","-36.653345012518","27634"
"18090-040","RN","Rafael Fernandes","40","-6.18649519788215","-38.2225028856897","18090"
"10227-005","PI","Colônia do Piauí","5","-7.223657563716509","-42.1771185063946","10227"
"37850-051","BA","Pedro Alexandre","51","-10.0100715801306","-37.8992615844143","37850"
"43710-093","MG","Contagem","93","-19.9417966","-44.04140049999999","43710"
"91901-004","MS","Vicentina","4","-22.4017875566794","-54.44212477684211","91901"
"53430-264","MG","Sete Lagoas","264","-19.444735","-44.215432","53430"
"93505-074","GO","Vila Propício","74","-15.4546348162901","-48.8824220764979","93505"
"80470-089","SC","Blumenau","89","-26.893912","-49.101593","80470"
"06076-005","AP","Mazagão","5","-0.124396328816998","-51.28607685610131","06076"
"07730-048","MA","Dom Pedro","48","-5.03844763500001","-44.440009910969","07730"
"32336-021","SE","São Cristóvão","21","-11.0136768567928","-37.2094987839423","32336"
"90220-027","MT","Tabaporã","27","-11.307507956675","-56.8248337962705","90220"
"32255-035","SE","Santa Luzia do Itanhy","35","-11.3533173969766","-37.4498421802076","32255"
"83410-066","SC","Saudades","66","-26.9197569502826","-52.9955697272511","83410"
"85308-085","RS","Arroio do Sal","85","-29.5929607431547","-49.93295751797799","85308"
"87297-029","RS","Lajeado","29","-29.4654544016624","-51.9678277005001","87297"
"24775-024","PE","Limoeiro","24","-7.8730131","-35.4404733","24775"
"92789-125","GO","Trombas","125","-13.50846772084","-48.74470861033521","92789"
"09610-071","MA","Açailândia","71","-4.9539357","-47.5030772","09610"
"87050-023","RS","Ijuí","23","-28.3885365401951","-53.918066835708","87050"
"58467-083","RJ","Mesquita","83","-22.7826135","-43.4304936","58467"
"84786-064","RS","Jaboticaba","64","-27.6312223855182","-53.2843894020471","84786"
"04898-099","PA","Melgaço","99","-1.80344669858156","-50.71746469769639","04898"
"66893-365","SP","Mauá","365","-23.6710203","-46.4555748","66893"
"89567-035","RS","Pedras Altas","35","-31.7336369386265","-53.58717031963959","89567"
"07579-006","MA","Caxias","6","-4.8794772","-43.3778133","07579"
"19046-005","PB","São José dos Ramos","5","-7.247127356979859","-35.3779610544874","19046"
"18074-006","RN","Pureza","6","-5.46591858573424","-35.5622682321378","18074"
"63673-363","SP","Cruzália","363","-22.7454989283054","-50.7936661595576","63673"
"88013-113","RS","Porto Alegre","113","-30.056701","-51.173660","88013"
"04308-059","PA","Pau D'Arco","59","-7.83679440371834","-50.04827553189979","04308"
"51616-144","MG","Santa Maria do Salto","144","-16.2475726788839","-40.1469330149968","51616"
"14370-072","CE","Jaguaribara","72","-5.4575020337846","-38.4630972955508","14370"
"15512-029","CE","São João do Jaguaribe","29","-5.26863055031313","-38.2719407043798","15512"
"60011-240","RJ","Rio de Janeiro","240","-22.906348","-43.708640","60011"
"45411-116","MG","Frutal","116","-20.0258978744646","-48.9391537102571","45411"
"42382-226","MG","Serranópolis de Minas","226","-15.8087837815767","-42.8743863930717","42382"
"00272-016","RO","Cerejeiras","16","-13.19503303162","-60.8184261646815","00272"
"94633-028","TO","Miranorte","28","-9.51740473078501","-48.5926319369139","94633"
"90140-033","MT","Nova Guarita","33","-10.3088464290438","-55.4030701389659","90140"
"96652-027","TO","Wanderlândia","27","-6.85012551646474","-47.9562677260283","96652"
"23639-130","PE","Caetés","130","-8.775594844503971","-36.6248040076124","23639"
"93602-096","GO","Lagoa Santa","96","-19.1836069802311","-51.4046158469187","93602"
"26093-023","PE","Tracunhaém","23","-7.802688612413119","-35.2379228139922","26093"
"62340-106","SP","Nantes","106","-22.62011758184971","-51.2385874975948","62340"
"81060-098","SC","Forquilhinha","98","-28.7424153500818","-49.46886105336149","81060"
"39489-167","BA","Umburanas","167","-10.7292712184522","-41.3329141302901","39489"
"08117-054","MA","Joselândia","54","-4.97269332878427","-44.6991525645005","08117"
"27332-023","AL","Capela","23","-9.41293155521724","-36.0750084923936","27332"
"46450-196","MG","Itaipé","196","-17.4042316432239","-41.6732295731568","46450"
"23094-064","PE","Águas Belas","64","-9.11458949970449","-37.1219571685606","23094"
"14273-041","CE","Itapajé","41","-3.683996","-39.586070","14273"
"87327-031","RS","Pareci Novo","31","-29.6393892905972","-51.3988696583788","87327"
"63738-043","SP","Cunha","43","-23.0747501467256","-44.9580269034981","63738"
"40797-017","MG","Araxá","17","-19.5913298021871","-46.9400098900213","40797"
"71218-177","SP","São Vicente","177","-23.9676317","-46.37692029999999","71218"
"76759-102","PR","Mandaguaçu","102","-23.3427891411354","-52.0942530606026","76759"
"60011-117","RJ","Rio de Janeiro","117","-22.816506","-43.185845","60011"
"38253-182","BA","Riachão das Neves","182","-11.7462475295791","-44.9164697719097","38253"
"86991-028","RS","Ibiraiaras","28","-28.3692267286586","-51.6353239891883","86991"
"31852-005","SE","Muribeca","5","-10.4274274732135","-36.9570014375569","31852"
"22314-027","PB","Taperoá","27","-7.209539350761639","-36.8289985342818","22314"
"65170-069","SP","Inúbia Paulista","69","-21.7699119896702","-50.9643748939952","65170"
"33995-093","BA","Caculé","93","-14.5042061966779","-42.2214140996087","33995"
"09091-051","MA","São Bernardo","51","-3.365436509999999","-42.4230096609141","09091"
"94153-109","GO","Itapirapuã","109","-15.8188624936615","-50.6091628273289","94153"
"37672-074","BA","Ouriçangas","74","-12.006851917563","-38.6284167702128","37672"
"86134-146","RS","Constantina","146","-27.7304110856673","-52.98773883211369","86134"
"88609-096","RS","Ubiretama","96","-28.0435647649493","-54.68451077622811","88609"
"20672-071","PB","Lagoa Seca","71","-7.15841248832496","-35.8514401351463","20672"
"50210-292","MG","Pirapetinga","292","-21.6559720065321","-42.3484310466426","50210"
"08052-035","MA","São Luís Gonzaga do Maranhão","35","-4.37391849042223","-44.6627084964498","08052"
"68390-302","SP","Pedranópolis","302","-20.2476466666321","-50.11239028289711","68390"
"88013-158","RS","Porto Alegre","158","-30.006121","-51.124535","88013"
"61735-111","SP","Ariranha","111","-21.1861274422794","-48.7883365641079","61735"
"22373-037","PB","Triunfo","37","-6.576835507170719","-38.598098331275","22373"
"19844-063","PB","Aparecida","63","-6.78369514129693","-38.0833382545419","19844"
"09695-016","MA","Miranda do Norte","16","-3.56264477431263","-44.584275691732","09695"
"78859-008","PR","São José dos Pinhais","8","-25.5389704","-49.2059484","78859"
"11290-065","PI","Monsenhor Hipólito","65","-7.00350247241766","-41.0328934036477","11290"
"90980-016","MT","Santa Cruz do Xingu","16","-10.1524495033055","-52.3986159655702","90980"
"13633-071","CE","Caririaçu","71","-7.04152799977014","-39.2843720295557","13633"
"40100-196","MG","Catuji","196","-17.3010807055699","-41.523126865366","40100"
"22217-048","PB","Solânea","48","-6.75989749977915","-35.6561584077255","22217"
"75329-163","PR","Espigão Alto do Iguaçu","163","-25.4266700609671","-52.83821349869021","75329"
"49670-242","MG","Paulistas","242","-18.4317377121407","-42.8726250989216","49670"
"87521-081","RS","Quevedos","81","-29.3519213491659","-54.07125472235081","87521"
"98132-046","MS","Sete Quedas","46","-23.9835132542699","-55.0533150890634","98132"
"42390-296","MG","Candeias","296","-20.7703500405276","-45.2768566964552","42390"
"97012-018","DF","Brasília","18","-15.8616241","-47.8598189","97012"
"60011-236","RJ","Rio de Janeiro","236","-22.875247","-43.474750","60011"
"38156-060","BA","Presidente Jânio Quadros","60","-14.6853953664908","-41.6824426344039","38156"
"61565-190","SP","Potim","190","-22.840620205643","-45.255974312882","61565"
"89249-077","RS","Itati","77","-29.5002484946664","-50.1017822613948","89249"
"47910-169","MG","Mantena","169","-18.7806998743977","-40.9785257407467","47910"
"23515-054","PE","Brejo da Madre de Deus","54","-8.148956499734901","-36.3703914413319","23515"
"52337-210","MG","São Gonçalo do Abaeté","210","-18.3411129274852","-45.8342461504009","52337"
"61042-015","SP","Tarumã","15","-22.7447711936108","-50.5765651350867","61042"
"97012-014","DF","Brasília","14","-15.8221725","-47.9028287","97012"
"40436-089","MG","Alvarenga","89","-19.4144696862521","-41.7264422739295","40436"
"25658-040","PE","São Joaquim do Monte","40","-8.43215149972594","-35.8094911721096","25658"
"07641-096","MA","Governador Newton Bello","96","-3.429704719790731","-45.67450179700921","07641"
"06106-011","AP","Serra do Navio","11","0.897841040942318","-52.00353843529179","06106"
"75361-044","PR","Foz do Jordão","44","-25.7334396195211","-52.12562753183111","75361"
"46310-181","MG","Iraí de Minas","181","-18.981858344938","-47.46299141783091","46310"
"33804-069","BA","Bonito","69","-11.9695725017078","-41.2684027881505","33804"
"95257-023","TO","Pedro Afonso","23","-8.964449592132119","-48.1775561127387","95257"
"88986-007","RS","Aceguá","7","-31.8640153034157","-54.1647315363634","88986"
"14958-057","CE","Pacatuba","57","-3.98612002216283","-38.6182993120325","14958"
"08583-043","MA","Tufilândia","43","-3.67640411826289","-45.63391647568181","08583"
"14290-123","CE","Itapipoca","123","-3.726250599999999","-38.662764","14290"
"05576-003","PA","Soure","3","-0.7259254999760609","-48.5160126622773","05576"
"23973-126","PE","Cumaru","126","-8.01503244260341","-35.6946989631155","23973"
"41220-224","MG","Oratórios","224","-20.430995951466","-42.8063392207749","41220"
"68276-085","SP","Patrocínio Paulista","85","-20.6411534016846","-47.2830600903002","68276"
"43176-155","MG","Chácara","155","-21.6729132226959","-43.2187700295011","43176"
"19178-012","PB","Arara","12","-6.8261917209866","-35.7595417215504","19178"
"12360-071","PI","Cocal de Telha","71","-4.55381572376658","-41.9790478739642","12360"
"04871-032","PA","Marapanim","32","-0.7121509963243339","-47.7025487537677","04871"
"75426-029","PR","Guamiranga","29","-25.189909452903","-50.80987590066771","75426"
"62197-023","SP","Bauru","23","-22.3310545","-49.0674998","62197"
"65056-115","SP","Igaratá","115","-23.2048429993161","-46.15631442393771","65056"
"07439-044","MA","Buriti Bravo","44","-5.835288131955631","-43.8356215415106","07439"
"71072-246","SP","São Paulo","246","-23.6474727","-46.7085049","71072"
"45659-123","MG","Guaranésia","123","-21.3055603700206","-46.7954912202959","45659"
"75353-004","PR","Curitiba","4","-25.462197","-49.346114","75353"
"87572-099","RS","Nonoai","99","-27.3546645317141","-52.7761885672359","87572"
"81795-095","SC","Joinville","95","-26.274932","-48.802573","81795"
"28096-009","AL","Murici","9","-9.316301144045021","-35.947555585677","28096"
"85570-069","RS","Cacequi","69","-29.8802876596639","-54.8277276903362","85570"
"36315-081","BA","Itapicuru","81","-11.3109527002123","-38.218612375549","36315"
"59013-088","RJ","São João de Meriti","88","-22.7785064","-43.3679338","59013"
"41238-037","MG","Belo Horizonte","37","-19.938178","-43.996319","41238"
"54194-295","MG","Vazante","295","-17.991038429689","-46.901966885848","54194"
"51292-244","MG","Rubelita","244","-16.4029664151809","-42.2647623323815","51292"
"72079-233","SP","Turmalina","233","-20.0512686167101","-50.4777294314793","72079"
"23558-060","PE","Buíque","60","-8.62205904040229","-37.156988114845","23558"
"95354-039","GO","Pilar de Goiás","39","-14.7660904480385","-49.575114312765","95354"
"87726-063","RS","São José dos Ausentes","63","-28.7499064312377","-50.0636129376329","87726"
"69817-244","SP","Rio das Pedras","244","-22.8428607218243","-47.6044848861606","69817"
"75477-116","PR","Engenheiro Beltrão","116","-23.8011440696727","-52.2600351547591","75477"
"33316-082","BA","Antas","82","-10.4127021689295","-38.3310416783347","33316"
"79758-096","PR","Marilena","96","-22.7318252444575","-53.0371858842334","79758"
"93270-051","GO","Cristianópolis","51","-17.195588953852","-48.7122976533102","93270"
"12688-033","PI","Caxingó","33","-3.42693840273572","-41.8826837610641","12688"
"56634-025","ES","Linhares","25","-19.3981059338732","-40.0653057986955","56634"
"86657-082","RS","Formigueiro","82","-29.9976338146029","-53.50029441494449","86657"
"16438-011","RN","Canguaretama","11","-6.37492521551181","-35.1285396639931","16438"
"84921-093","RS","Boqueirão do Leão","93","-29.3051579171027","-52.42805026447179","84921"
"27650-027","AL","Inhapi","27","-9.2238987730329","-37.752636521046","27650"
"09210-002","MA","São Luís","2","-2.5311549","-44.258258","09210"
"81787-007","SC","Brunópolis","7","-27.3183621500541","-50.83592077195069","81787"
"71072-001","SP","São Paulo","1","-23.5544189","-46.6385127","71072"
"60011-165","RJ","Rio de Janeiro","165","-22.984325","-43.202925","60011"
"89834-057","MT","Paranatinga","57","-14.427698479643","-54.0540919919065","89834"
"81051-100","SC","Florianópolis","100","-27.441780","-48.426930","81051"
"88455-030","RS","Sant'Ana do Livramento","30","-30.8893840103812","-55.5348142679597","88455"
"48690-186","MG","Morada Nova de Minas","186","-18.6074447210682","-45.3555023480963","48690"
"09075-038","MA","São Bento","38","-2.69700749991118","-44.8283451799242","09075"
"90808-044","MT","Novo Mundo","44","-9.97710919417073","-55.1720189315524","90808"
"42412-303","MG","Caparaó","303","-20.5255883667474","-41.9071902950208","42412"
"05150-044","PA","Portel","44","-1.93645099993618","-50.82249044221099","05150"
"58653-142","RJ","Niterói","142","-22.920891","-43.093754","58653"
"64939-049","SP","Ibitinga","49","-21.7570829836996","-48.8276946930001","64939"
"09210-089","MA","São Luís","89","-2.521803","-44.2479161","09210"
"92010-090","GO","Abadiânia","90","-16.1826718574992","-48.71881214167519","92010"
"45535-318","MG","Governador Valadares","318","-18.8516138","-41.9479739","45535"
"69698-293","SP","Ribeirão Preto","293","-21.187749","-47.833239","69698"
"71234-052","SP","Sarapuí","52","-23.6415065700746","-47.82719598504471","71234"
"49379-219","MG","Papagaios","219","-19.4555367590213","-44.7447017250618","49379"
"85030-023","RS","Ajuricaba","23","-28.2377290059022","-53.77281888998731","85030"
"28134-042","AL","Olho d'Água das Flores","42","-9.53360127496604","-37.2978907897967","28134"
"75710-090","PR","Guaíra","90","-24.0852754792964","-54.2467577203893","75710"
"32395-026","SE","São Miguel do Aleixo","26","-10.3877721944872","-37.3839764494164","32395"
"02259-008","AM","Coari","8","-4.08421915864164","-63.14218398405621","02259"
"07234-066","MA","Bacabal","66","-4.2322834","-44.7774993","07234"
"40568-318","MG","Periquito","318","-19.154484900521","-42.2347246280497","40568"
"62154-184","SP","Bastos","184","-21.9210374693459","-50.7348708618954","62154"
"70076-294","SP","Salto de Pirapora","294","-23.649132224306","-47.5746801202081","70076"
"13021-063","CE","Madalena","63","-4.85243417644272","-39.5757886826003","13021"
"71455-342","SP","Sorocaba","342","-23.491433","-47.413242","71455"
"71870-330","SP","Teodoro Sampaio","330","-22.5310069993316","-52.1711948221637","71870"
"63312-355","SP","Cerquilho","355","-23.16867249931691","-47.73753132510791","63312"
"07412-025","MA","Buriti","25","-3.94557149987029","-42.9251061777803","07412"
"08079-016","MA","Itapecuru Mirim","16","-3.39904548","-44.354263390434","08079"
"28738-033","AL","São Miguel dos Milagres","33","-9.267186294701769","-35.3691193336325","28738"
"51853-240","MG","Santa Rita de Jacutinga","240","-22.148461121566","-44.1004418543942","51853"
"79790-121","PR","Nova Santa Rosa","121","-24.46476453260181","-53.955116084308","79790"
"58009-255","RJ","Quissamã","255","-22.106640164856","-41.4725094000999","58009"
"61930-095","SP","Balbinos","95","-21.9015237813775","-49.3564734994135","61930"
"60011-171","RJ","Rio de Janeiro","171","-22.928104","-43.236775","60011"
"97012-016","DF","Brasília","16","-15.7974731","-48.1228577","97012"
"13951-025","CE","Granja","25","-3.1189521560671","-40.8299389910215","13951"
"60011-006","RJ","Rio de Janeiro","6","-22.919564","-43.220183","60011"
"87033-149","RS","Igrejinha","149","-29.5722204549449","-50.7987107333217","87033"
"45217-114","MG","Formiga","114","-20.4648835518351","-45.4264281831415","45217"
"56030-004","ES","Alegre","4","-20.7632651344965","-41.5364883187663","56030"
"39624-056","BA","Varzedo","56","-12.9753125645433","-39.3934758347381","39624"
"80713-031","SC","Canelinha","31","-27.2724147938395","-48.7892731276779","80713"
"06084-011","AP","Pedra Branca do Amapari","11","0.776882860538326","-51.9465942732743","06084"
"17590-033","RN","Mossoró","33","-5.166078499999999","-37.3594323","17590"
"10758-072","PI","Flores do Piauí","72","-7.79177560151923","-42.9243058019859","10758"
"17418-005","RN","Macaíba","5","-5.85723661943441","-35.3552371335816","17418"
"80012-071","SC","Abelardo Luz","71","-26.5630310216893","-52.33648238332369","80012"
"90484-060","MT","Campo Novo do Parecis","60","-13.6547331727689","-57.8885464788372","90484"
"61581-052","SP","Alambari","52","-23.5538988919788","-47.89358838723361","61581"
"46051-304","MG","Iguatama","304","-20.1760739657591","-45.7091401060063","46051"
"96954-002","TO","Aliança do Tocantins","2","-11.3037430461457","-48.9412400221409","96954"
"12327-038","PI","Acauã","38","-8.220786662610241","-41.0836378172387","12327"
"38946-178","BA","Saubara","178","-12.7369036244128","-38.7706068300048","38946"
"82694-057","SC","Pouso Redondo","57","-27.2510862774419","-49.9556521355194","82694"
"18198-019","RN","Ruy Barbosa","19","-5.87942894076559","-35.9354841632411","18198"
"28070-042","AL","Monteirópolis","42","-9.602327538556681","-37.2452720989471","28070"
"49832-291","MG","Pedrinópolis","291","-19.2277204060949","-47.4606173926482","49832"
"71072-259","SP","São Paulo","259","-23.6139638","-46.6365471","71072"
"38695-107","BA","Santa Teresinha","107","-12.7728517708247","-39.5211400561744","38695"
"87769-032","RS","São José das Missões","32","-27.7781833172731","-53.1187752690111","87769"
"97012-013","DF","Brasília","13","-15.8815895","-48.0857822","97012"
"68659-091","SP","Espírito Santo do Pinhal","91","-22.1970534993394","-46.7455142898697","68659"
"53899-089","MG","Tumiritinga","89","-18.9766076605886","-41.6379804793586","53899"
"60011-191","RJ","Rio de Janeiro","191","-22.8068028","-43.1812446","60011"
"88536-045","RS","Santo Ângelo","45","-28.3019378725592","-54.2641427984269","88536"
"87068-116","RS","Minas do Leão","116","-30.1224395099051","-52.0512801985772","87068"
"61794-290","SP","Assis","290","-22.6560623","-50.42193409999999","61794"
"85847-101","RS","Vista Gaúcha","101","-27.289978374572","-53.7013197816331","85847"
"87548-099","RS","Rio dos Índios","99","-27.2983975944503","-52.8400578928292","87548"
"10618-059","PI","Cristino Castro","59","-8.82018628822386","-44.2244147473452","10618"
"54178-255","MG","Varzelândia","255","-15.7088710517885","-44.027948143227","54178"
"61034-064","SP","Adolfo","64","-21.2327297767104","-49.64972142555961","61034"
"19712-020","PB","Cacimba de Dentro","20","-6.640016746824069","-35.7928209013797","19712"
"89346-148","RS","Paulo Bento","148","-27.7041002819308","-52.4224356311043","89346"
"07064-107","MA","Apicum-Açu","107","-1.5305915777044","-45.07665207344859","07064"
"81612-016","SC","Itajaí","16","-26.9060681","-48.6696342","81612"
"95770-064","GO","Santa Bárbara de Goiás","64","-16.5774759284392","-49.68978337711261","95770"
"07617-042","MA","Chapadinha","42","-3.74002451987701","-43.361120781752","07617"
"92690-124","GO","Bom Jesus de Goiás","124","-18.2147665086225","-49.7394106514873","92690"
"24252-080","PE","Granito","80","-7.70925328209857","-39.6192863432021","24252"
"50890-226","MG","Riacho dos Machados","226","-15.9980341602315","-43.0445637317792","50890"
"69132-100","SP","Porto Feliz","100","-23.2144122673158","-47.52459657306559","69132"
"93998-053","GO","Iporá","53","-16.4400026701954","-51.11959508921581","93998"
"10650-054","PI","Demerval Lobão","54","-5.3584654657348","-42.6742286110912","10650"
"96997-028","TO","Barrolândia","28","-9.83165336421555","-48.7314605907218","96997"
"81078-077","SC","Fraiburgo","77","-27.0234469619419","-50.9250792352346","81078"
"21210-033","PB","Pedra Branca","33","-7.42656442588795","-38.0722463078192","21210"
"16519-006","RN","Ceará-Mirim","6","-5.640983591726919","-35.42448692853","16519"
"61093-134","SP","Águas de Lindóia","134","-22.4738220355036","-46.6317788359222","61093"
"58637-221","RJ","Nilópolis","221","-22.807938","-43.41935290000001","58637"
"67997-154","SP","Pacaembu","154","-21.560078498709","-51.2652015199324","67997"
"12564-066","PI","Wall Ferraz","66","-7.23577900617655","-41.9089536203039","12564"
"51330-241","MG","Sabará","241","-19.8924945114854","-43.8255570903302","51330"
"05134-027","PA","Ponta de Pedras","27","-1.39659999747746","-48.87178556004329","05134"
"90743-061","MT","Campos de Júlio","61","-13.7199230452052","-59.2634085205862","90743"
"33359-053","BA","Antônio Gonçalves","53","-10.5757977909535","-40.2756586985804","33359"
"04863-020","PA","Mojuí dos Campos","20","-2.682189","-54.642485","04863"
"99074-041","MT","Indiavaí","41","-15.4975142290697","-58.5739923860232","99074"
"74004-132","PR","Godoy Moreira","132","-24.1928594478904","-51.9243682163217","74004"
"13285-007","CE","Pindoretama","7","-4.02780399260879","-38.3000879762561","13285"
"62375-041","SP","Bofete","41","-23.1025199992998","-48.26003305881979","62375"
"13366-018","CE","Tarrafas","18","-6.682590314518979","-39.7584941948653","13366"
"68454-295","SP","Pedro de Toledo","295","-24.2728006728377","-47.2290763497417","68454"
"61450-041","SP","Anhembi","41","-22.7863209389507","-48.126926830643","61450"
"74411-071","PR","Atalaia","71","-23.1515870948564","-52.0557011364669","74411"
"94471-045","GO","Mairipotaba","45","-17.2973954683223","-49.5008802854382","94471"
"98191-027","MT","Juara","27","-11.2503599781237","-57.5131232183312","98191"
"80004-077","SC","Monte Carlo","77","-27.217678801311","-50.9741046780325","80004"
"68233-026","SP","Pardinho","26","-23.0803183232555","-48.3728766836555","68233"
"80934-011","SC","Curitibanos","11","-27.2829825056971","-50.5826010352621","80934"
"81795-076","SC","Joinville","76","-26.327399","-48.809791","81795"
"43850-096","MG","Coromandel","96","-18.4738505970211","-47.2015477282097","43850"
"67890-277","SP","Osasco","277","-23.5313783","-46.7969057","67890"
"66893-364","SP","Mauá","364","-23.669778","-46.4636739","66893"
"74250-028","PR","Apucarana","28","-23.5618321","-51.4699468","74250"
"49999-136","MG","Pescador","136","-18.3536287284123","-41.6016228175806","49999"
"80381-052","SC","Cerro Negro","52","-27.7958280669596","-50.8700622646788","80381"
"35319-131","BA","Governador Mangabeira","131","-12.6015538380427","-39.0340236148013","35319"
"10448-076","PI","Santa Cruz dos Milagres","76","-5.80812099816283","-41.9584459530597","10448"
"15679-019","CE","Tauá","19","-6.00299893966137","-40.2926246551049","15679"
"13897-113","CE","Fortaleza","113","-3.720347599999999","-38.5174072","13897"
"62367-168","SP","Nova Castilho","168","-20.7656546194787","-50.3439061761777","62367"
"16098-041","RN","Alexandria","41","-6.41713633773443","-38.0192888913064","16098"
"20630-031","PB","Lagoa","31","-6.59420861311932","-37.9150900701029","20630"
"16063-014","RN","São Miguel do Gostoso","14","-5.12285711614355","-35.6412835112052","16063"
"12017-060","PI","São José do Peixe","60","-7.49300878066353","-42.5701794157863","12017"
"73598-003","TO","Ipueiras","3","-11.2462886212303","-48.4519262288947","73598"
"16616-020","RN","Currais Novos","20","-6.264672218750631","-36.5162192209593","16616"
"13757-034","CE","Cedro","34","-6.604960499784109","-39.0597431480294","13757"
"83674-033","SC","Tubarão","33","-28.4669099969","-49.007","83674"
"65293-243","SP","Iracemápolis","243","-22.5830369336128","-47.5222466341717","65293"
"04278-096","PA","Belém","96","-1.4226787","-48.4667221","04278"
"02119-026","AM","Barreirinha","26","-2.79814983683766","-57.0677504898938","02119"
"15130-102","CE","Penaforte","102","-7.829914611800671","-39.0741275240802","15130"
"07170-012","MA","Araioses","12","-2.88925584633793","-41.8991394498654","07170"
"36374-091","BA","Itarantim","91","-15.6578300411307","-40.0615452743889","36374"
"00787-016","RO","Pimenteiras do Oeste","16","-13.4765620020333","-61.04437900253839","00787"
"71250-094","SP","Sarutaiá","94","-23.2744959251587","-49.4831286342665","71250"
"05231-064","PA","Salinópolis","64","-0.623637999979433","-47.35312026315361","05231"
"68632-179","SP","Pindorama","179","-21.1859884879161","-48.9056375352937","68632"
"97012-020","DF","Brasília","20","-15.8291761","-48.1091746","97012"
"75043-188","PR","Pinhais","188","-25.448044","-49.190082","75043"
"54151-310","MG","Várzea da Palma","310","-17.5975701765461","-44.7303465827323","54151"
"25097-091","PE","Passira","91","-7.978883941574391","-35.5816849952227","25097"
"13897-115","CE","Fortaleza","115","-3.7203198","-38.5172147","13897"
"20230-059","PB","Fagundes","59","-7.363061604208381","-35.7846088757702","20230"
"66699-131","SP","Mairinque","131","-23.5474579993083","-47.1844826262497","66699"
"75051-088","PR","Cianorte","88","-23.6538131521335","-52.60915089055609","75051"
"61182-080","SP","Embaúba","80","-20.9826680542432","-48.83262029214581","61182"
"18970-063","RN","Viçosa","63","-5.99185717453818","-37.9474090159692","18970"
"62910-380","SP","Campinas","380","-22.897740","-47.110346","62910"
"31895-017","SE","Nossa Senhora da Glória","17","-10.2156868487762","-37.4199214592678","31895"
"48798-188","MG","Mutum","188","-19.8071892237146","-41.4391385240539","48798"
"71935-094","SP","Timburi","94","-23.2023633822765","-49.6035428949314","71935"
"17175-042","RN","José da Penha","42","-6.31268844256442","-38.2844030704545","17175"
"74403-120","PR","Iracema do Oeste","120","-24.4290304145846","-53.358110555243","74403"
"08443-061","MA","São Roberto","61","-5.01736688221626","-44.9919011592934","08443"
"23213-084","PE","Araripina","84","-7.57814149975302","-40.5024605749941","23213"
"61328-299","SP","Santo Antônio do Aracanguá","299","-20.932496841914","-50.4967350523279","61328"
"11592-010","PI","Picos","10","-7.079422900000001","-41.4458383","11592"
"59250-047","RJ","Volta Redonda","47","-22.485808","-44.070782","59250"
"08524-107","MA","Serrano do Maranhão","107","-1.85264554166646","-45.1146408497435","08524"
"36579-030","BA","Jaguaripe","30","-13.1150638879647","-38.8914186277088","36579"
"81574-061","SC","Itá","61","-27.2817787167067","-52.3291825163272","81574"
"39047-071","BA","Serra do Ramalho","71","-13.5644659876407","-43.5807307421456","39047"
"93734-146","GO","Goiânia","146","-16.6901597","-49.2754142","93734"
"73423-021","TO","Carrasco Bonito","21","-5.32266135468352","-48.0306334265692","73423"
"17272-019","RN","Lagoa de Velhos","19","-5.999915519106379","-35.8706988331384","17272"
"33596-176","BA","Barra do Mendes","176","-11.8088282808827","-42.0591284156826","33596"
"14052-054","CE","Hidrolândia","54","-4.40799944411477","-40.4018171243637","14052"
"34975-085","BA","Curaçá","85","-8.989032117681971","-39.908081018943","34975"
"77771-198","PR","Ponta Grossa","198","-25.090946","-50.112035","77771"
"10081-095","PI","Bonfim do Piauí","95","-9.166560538977521","-42.8796630650943","10081"
"42315-065","MG","Campos Gerais","65","-21.2386979067993","-45.75690736521981","42315"
"49913-202","MG","Pequi","202","-19.6279870905345","-44.653441896498","49913"
"33537-077","BA","Barra","77","-11.0889548201896","-43.1436385524586","33537"
"40720-167","MG","São João do Manhuaçu","167","-20.395499865364","-42.1521577505494","40720"
"62618-053","SP","Buri","53","-23.7993814182754","-48.5974149737978","62618"
"38873-036","BA","São Miguel das Matas","36","-13.0517330816841","-39.4557804260308","38873"
"44598-228","MG","Dores de Campos","228","-21.1040875594109","-44.0230465708887","44598"
"36757-037","BA","Lafaiete Coutinho","37","-13.652999424374","-40.2106058828047","36757"
"51497-283","MG","Santa Efigênia de Minas","283","-18.8198378226371","-42.4393126685705","51497"
"83216-053","SC","São João Batista","53","-27.2958805559684","-48.85700428024621","83216"
"38296-113","BA","Riacho de Santana","113","-13.6065881417089","-42.9383471199804","38296"
"12734-010","PI","Aroeiras do Itaim","10","-7.27874546473469","-41.5632044182612","12734"
"75027-162","PR","Nova Esperança do Sudoeste","162","-25.8987792075935","-53.2642073185992","75027"
"86096-109","RS","Colorado","109","-28.5229477591022","-52.9931763194633","86096"
"95052-144","GO","Ouro Verde de Goiás","144","-16.2108276539917","-49.20386760278461","95052"
"96334-050","GO","Uruaçu","50","-14.5202197623662","-49.1474856222181","96334"
"77879-071","PR","Presidente Castelo Branco","71","-23.2815496040452","-52.157726252669","77879"
"38911-184","BA","Sapeaçu","184","-12.7351614746466","-39.1948084366246","38911"
"75914-080","PR","Ibiporã","80","-23.26933147431461","-51.0580336739701","75914"
"42579-002","MG","Caputira","2","-20.1708899888554","-42.2719878999316","42579"
"93890-062","GO","Hidrolândia","62","-16.9609447708854","-49.2297840436263","93890"
"88323-040","RS","Herveiras","40","-29.4570438100949","-52.6501705958055","88323"
"28150-032","AL","Olho d'Água do Casado","32","-9.501446264980411","-37.8362428164813","28150"
"71072-418","SP","São Paulo","418","-23.6886652","-46.6799812","71072"
"92347-131","GO","Mimoso de Goiás","131","-15.0592934910955","-48.16327311593771","92347"
"59013-186","RJ","São João de Meriti","186","-22.7779102","-43.36710370000001","59013"
"40460-237","MG","Montezuma","237","-15.1711441579999","-42.50747369917","40460"
"93343-028","GO","Águas Lindas de Goiás","28","-15.73793885579","-48.28344443621519","93343"
"33332-143","BA","Antônio Cardoso","143","-12.4348389090795","-39.1186615354614","33332"
"82490-039","SC","Petrolândia","39","-27.5281268322264","-49.6948686231007","82490"
"25992-051","PE","Taquaritinga do Norte","51","-7.90215982552479","-36.0433376713092","25992"
"35394-093","BA","Ibiassucê","93","-14.2767025340767","-42.2557743546652","35394"
"71951-028","SP","Torrinha","28","-22.4274936140321","-48.1721575851456","71951"
"77712-038","PR","Pitanga","38","-24.7527477526965","-51.7631540083928","77712"
"87718-172","RS","Novo Hamburgo","172","-29.6991373","-51.1312439","87718"
"47198-149","MG","Joaíma","149","-16.6547296374664","-41.0230530136668","47198"
"70718-272","SP","Santos","272","-23.9842602","-46.2962789","70718"
"27022-039","AL","Pariconha","39","-9.25788438488493","-38.0098260716315","27022"
"39748-162","BA","Madre de Deus","162","-12.740312654127","-38.6027685669092","39748"
"02291-011","AM","Eirunepé","11","-6.66735256663392","-69.8662902624416","02291"
"56049-018","ES","Irupi","18","-20.3485970386774","-41.6475278614673","56049"
"00230-008","RO","Colorado do Oeste","8","-13.1305638410373","-60.5550674630789","00230"
"92320-109","GO","Matrinchã","109","-15.4371883165123","-50.7464743435777","92320"
"50652-101","MG","Presidente Kubitschek","101","-18.6154898020042","-43.5574479486812","50652"
"93122-040","GO","Caldazinha","40","-16.7147769432856","-49.0033734590288","93122"
"65498-053","SP","Itapeva","53","-23.9834379985973","-48.8773891590654","65498"
"24791-090","PE","Macaparana","90","-7.55568069850086","-35.4498749786749","24791"
"58971-197","RJ","São Gonçalo","197","-22.826718","-43.090992","58971"
"25739-013","PE","São Lourenço da Mata","13","-7.99593799973972","-35.041277539321","25739"
"62456-086","SP","Boracéia","86","-22.1932056537052","-48.7792182831576","62456"
"00337-018","RO","Alvorada D'Oeste","18","-11.344130023069","-62.2772748656972","00337"
"91090-025","MT","Vila Bela da Santíssima Trindade","25","-15.009324478308","-59.95255819947811","91090"
"08141-106","MA","Presidente Sarney","106","-2.5955305598205","-45.3713022606449","08141"
"36080-068","BA","Itaguaçu da Bahia","68","-11.0087222100152","-42.4011571242595","36080"
"34932-098","BA","Cristópolis","98","-12.231450808575","-44.4118418963","34932"
"36099-137","BA","Itaju do Colônia","137","-15.1401935519279","-39.7247246149297","36099"
"58343-107","RJ","São José de Ubá","107","-21.3602211091167","-41.9412319414458","58343"
"25437-075","PE","Salgueiro","75","-8.070677521871531","-39.120850981104","25437"
"33138-164","BA","Alagoinhas","164","-12.1443171","-38.4023503","33138"
"51730-025","MG","Santana do Garambéu","25","-21.6018318567176","-44.110873430004","51730"
"41122-237","MG","Ninheira","237","-15.3238019187147","-41.7487889593795","41122"
"04758-069","PA","Jacundá","69","-4.44840547485389","-49.11278156256749","04758"
"43150-066","MG","Centralina","66","-18.5853855106769","-49.19628257014541","43150"
"04839-023","PA","Marabá","23","-5.337867999999999","-49.10090599999999","04839"
"85596-010","RS","Cachoeira do Sul","10","-30.0458199789091","-52.893412558482","85596"
"17159-041","RN","João Dias","41","-6.27611409763775","-37.7969607820048","17159"
"03050-003","RR","Alto Alegre","3","2.99382294755628","-61.3140223901178","03050"
"92711-101","GO","Brazabrantes","101","-16.425714935811","-49.3886672746655","92711"
"42870-077","MG","Carmo do Rio Claro","77","-20.9729965294975","-46.1219647340897","42870"
"71412-145","SP","Silveiras","145","-22.6614243456798","-44.8489961031593","71412"
"40673-015","MG","Araçuaí","15","-16.8517813948383","-42.0642065495411","40673"
"47937-219","MG","Maravilhas","219","-19.51467971947","-44.6760761301857","47937"
"90603-021","MT","Lucas do Rio Verde","21","-13.0704649504837","-55.92177070911169","90603"
"19372-061","PB","Bayeux","61","-7.13227648476721","-34.9291858200857","19372"
"40037-001","MG","Abaeté","1","-19.155847693559","-45.4461914172049","40037"
"13897-114","CE","Fortaleza","114","-3.7203198","-38.5172147","13897"
"60011-205","RJ","Rio de Janeiro","205","-22.970267","-43.186356","60011"
"15059-109","CE","Paracuru","109","-3.41163500904486","-39.0295453441225","15059"
"80977-050","SC","Dionísio Cerqueira","50","-26.266488532911","-53.63139512282729","80977"
"77631-019","PR","Pinhalão","19","-23.7873547281729","-50.06260306352531","77631"
"90794-039","MS","Glória de Dourados","39","-22.4144245303329","-54.2346287898579","90794"
"78638-099","PR","Santo Antônio do Paraíso","99","-23.4947194360864","-50.6468281629708","78638"
"31992-007","SE","Pedra Mole","7","-10.6181191600764","-37.6860272130241","31992"
"27618-045","AL","Igaci","45","-9.533688659156031","-36.62815971645","27618"
"00558-028","RO","Vale do Paraíso","28","-10.43105268422","-62.1343903568099","00558"
"15610-055","CE","Solonópole","55","-5.72635129082024","-39.0082249132446","15610"
"23337-045","PE","Belo Jardim","45","-8.3352954390873","-36.420035083018","23337"
"62111-135","SP","Barrinha","135","-21.1917434993634","-48.16281351852609","62111"
"38172-106","BA","Queimadas","106","-10.9763905288027","-39.6264068266007","38172"
"94455-139","GO","Luziânia","139","-16.2310798","-47.939528","94455"
"61352-138","SP","Américo de Campos","138","-20.2964019429838","-49.72702683744959","61352"
"48453-338","MG","Moeda","338","-20.330268842372","-44.047568670537","48453"
"42498-174","MG","Capim Branco","174","-19.5455422087332","-44.1331662414131","42498"
"53031-272","MG","São Thomé das Letras","272","-21.720722779576","-44.9870084546217","53031"
"58971-069","RJ","São Gonçalo","69","-22.850828","-43.008016","58971"
"21199-031","PB","Paulista","31","-6.59406157954657","-37.6210556739873","21199"
"20079-033","PB","Curral Velho","33","-7.53808510741012","-38.2003914462447","20079"
"54356-137","MG","Virgínia","137","-22.336972066143","-45.09542516295579","54356"
"58025-183","RJ","Quatis","183","-22.4099186610114","-44.2627113015842","58025"
"63819-170","SP","Dobrada","170","-21.5148043297615","-48.4002427192517","63819"
"82910-026","SC","Rio do Sul","26","-27.2179032246709","-49.6432375290983","82910"
"83712-059","SC","Urubici","59","-28.0045549112502","-49.5882056111042","83712"
"56022-023","ES","Água Doce do Norte","23","-18.545546490707","-40.976455911882","56022"
"75612-120","PR","Formosa do Oeste","120","-24.2941972130191","-53.31616101073949","75612"
"17817-012","RN","Passa e Fica","12","-6.42911549344338","-35.6473522143433","17817"
"44130-211","MG","Cruzeiro da Fortaleza","211","-18.9386473158084","-46.67339264850721","44130"
"04588-060","PA","Bannach","60","-7.35107219218464","-50.4060471215195","04588"
"31330-030","SE","Cristinápolis","30","-11.4735577967079","-37.754659635068","31330"
"46655-175","MG","Itaobim","175","-16.5595259164787","-41.4989769803723","46655"
"19836-040","PB","Carrapateira","40","-7.039654241222349","-38.3442167253342","19836"
"83836-043","SC","Xanxerê","43","-26.8745844984772","-52.4046671389754","83836"
"28053-046","AL","Minador do Negrão","46","-9.303683260336079","-36.864915772472","28053"
"44890-227","MG","Estiva","227","-22.4630450596874","-46.01635180655169","44890"
"73466-013","TO","Oliveira de Fátima","13","-10.7083627087169","-48.9074015689032","73466"
"27855-003","AL","Maceió","3","-9.618295999999999","-35.7394826","27855"
"13994-100","CE","Groaíras","100","-3.91195412907533","-40.382146023886","13994"
"95311-065","GO","Petrolina de Goiás","65","-16.0974175740662","-49.33879793609099","95311"
"95931-017","GO","São Francisco de Goiás","17","-15.9227064363305","-49.2620087204189","95931"
"35092-144","BA","Entre Rios","144","-11.937261370061","-38.078777019756","35092"
"77992-116","PR","Quinta do Sol","116","-23.8438884255332","-52.1351287636401","77992"
"96415-061","GO","Vianópolis","61","-16.7420814381448","-48.5134708970577","96415"
"93165-046","GO","Inaciolândia","46","-18.4863548291724","-49.9875784505859","93165"
"46930-144","MG","Jacinto","144","-16.1411618524178","-40.2914288341066","46930"
"36820-037","BA","Lajedo do Tabocal","37","-13.4725200031477","-40.2252295031908","36820"
"21679-037","PB","Santa Helena","37","-6.718694199423391","-38.6427896706556","21679"
"90514-053","MS","Campo Grande","53","-20.476215","-54.620530","90514"
"73199-006","TO","Fortaleza do Tabocão","6","-9.058965300856039","-48.5174264210488","73199"
"88013-114","RS","Porto Alegre","114","-30.077079","-51.208526","88013"
"90719-012","MT","Dom Aquino","12","-15.8074551502946","-54.9174807825692","90719"
"21393-073","PB","Pitimbu","73","-7.48241339578731","-34.8139304142683","21393"
"08699-037","MA","Pinheiro","37","-2.521373","-45.0822334","08699"
"23116-055","PE","Alagoinha","55","-8.466270522709561","-36.7754560083166","23116"
"04510-008","PA","Colares","8","-0.932091243927003","-48.28872843194939","04510"
"37435-054","BA","Mundo Novo","54","-11.8647227482438","-40.4714981500981","37435"
"73342-034","TO","Muricilândia","34","-7.13851928492735","-48.6067452770067","73342"
"81930-039","SC","Leoberto Leal","39","-27.5063895148832","-49.28940149897991","81930"
"16799-052","RN","Galinhos","52","-5.09168977824445","-36.2746400699779","16799"
"41050-062","MG","Bandeira do Sul","62","-21.724868543662","-46.3852629849298","41050"
"77593-107","PR","Pérola d'Oeste","107","-25.8282656759615","-53.740108472608","77593"
"58653-144","RJ","Niterói","144","-22.8895663","-43.1191126","58653"
"94692-003","TO","Monte do Carmo","3","-10.7635421942771","-48.11042002991119","94692"
"00574-013","RO","Mirante da Serra","13","-11.0456092895817","-62.66942709525659","00574"
"40517-013","MG","Andradas","13","-22.0728073434513","-46.575583000941","40517"
"52892-247","MG","São Sebastião do Maranhão","247","-18.0913715107723","-42.5657456966687","52892"
"97012-005","DF","Brasília","5","-15.6560266","-47.8055776","97012"
"94056-033","TO","Itacajá","33","-8.390980552045789","-47.76811240267801","94056"
"67954-082","SP","Ourinhos","82","-22.9772674993213","-49.868579835937","67954"
"67393-336","SP","Morro Agudo","336","-20.7326629987493","-48.0575938253217","67393"
"51179-240","MG","Rio Preto","240","-22.086922251797","-43.8294656655803","51179"
"75990-034","PR","Inácio Martins","34","-25.5721626862519","-51.0749452987122","75990"
"40320-172","MG","Juatuba","172","-19.9557908617279","-44.3413314409208","40320"
"71072-348","SP","São Paulo","348","-23.5659151","-46.543848","71072"
"92002-004","TO","Bernardo Sayão","4","-7.868512483056579","-48.8990543467276","92002"
"41793-052","MG","Brumadinho","52","-20.1441744097392","-44.2001876090636","41793"
"58238-102","RJ","Carmo","102","-21.929311779485","-42.6097176406817","58238"
"55050-038","MS","Paraíso das Águas","38","-19.023336","-53.010847","55050"
"46957-145","MG","Jacuí","145","-21.0176021582951","-46.7420103807098","46957"
"04430-025","PA","Capanema","25","-1.19244199496068","-47.1751261231344","04430"
"70874-175","SP","São João do Pau d'Alho","175","-21.2683639987231","-51.6666651611736","70874"
"23493-099","PE","Brejinho","99","-7.345671275726721","-37.2873345539798","23493"
"90514-036","MS","Campo Grande","36","-20.459066","-54.612783","90514"
"35157-156","BA","Feira de Santana","156","-12.2381057","-38.9630556","35157"
"02550-032","AM","Manaus","32","-3.1070776","-60.00912209999999","02550"
"67873-081","SP","Orlândia","81","-20.720421494375","-47.88638382212779","67873"
"88005-085","RS","Três Forquilhas","85","-29.5381105454803","-50.0643164805228","88005"
"17671-039","RN","Olho-d'Água do Borges","39","-5.959258387336","-37.7118209785559","17671"
"93009-106","GO","Aparecida do Rio Doce","106","-18.2969842872846","-51.1514916271733","93009"
"41904-148","MG","Cônego Marinho","148","-15.2962703176834","-44.4151547108268","41904"
"81477-015","SC","Indaial","15","-26.9062559984759","-49.2401404600146","81477"
"93386-088","GO","Amaralina","88","-13.9254818589773","-49.29537722190361","93386"
"34410-125","BA","Carinhanha","125","-14.3020069030981","-43.7617772009392","34410"
"08354-030","MA","Mirinzal","30","-2.06422419152305","-44.7857559864783","08354"
"65773-039","SP","Itobi","39","-21.734901818498","-46.9734186541802","65773"
"65099-132","SP","Ilhabela","132","-23.7886524993029","-45.3540566669409","65099"
"35459-146","BA","Ibicuí","146","-14.8430903646198","-39.9898321056847","35459"
"93181-125","GO","Montividiu do Norte","125","-13.3530942561614","-48.688822123885","93181"
"74080-068","PR","Santa Tereza do Oeste","68","-25.0587219002295","-53.6272357310511","74080"
"73202-033","TO","Itapiratins","33","-8.384329593170399","-48.1111996094691","73202"
"69957-163","SP","Sagres","163","-21.8811386699852","-50.9571547111781","69957"
"08672-043","MA","Pindaré-Mirim","43","-3.60550057479529","-45.34686791784329","08672"
"90786-022","MT","Feliz Natal","22","-12.3832470277783","-54.9339040664255","90786"
"12548-068","PI","Vila Nova do Piauí","68","-7.14104643371948","-40.937801396493","12548"
"16578-043","RN","Coronel João Pessoa","43","-6.26011221118598","-38.4402581627126","16578"
"23051-086","PE","Agrestina","86","-8.455972999725191","-35.94677683746","23051"
"13137-086","CE","Alto Santo","86","-5.52208173956425","-38.2727781487196","13137"
"08044-040","MA","Paulino Neves","40","-2.71820598973756","-42.5454239809373","08044"
"86886-109","RS","Lagoa dos Três Cantos","109","-28.569468131954","-52.85783524240449","86886"
"89990-025","MT","Pontes e Lacerda","25","-15.2297275706311","-59.3380018443657","89990"
"25470-123","PE","Sanharó","123","-8.36296196865152","-36.5625071953832","25470"
"43370-116","MG","Comendador Gomes","116","-19.7002146265418","-49.0814302053371","43370"
"66257-201","SP","Juquitiba","201","-23.9356892008076","-47.08159407229181","66257"
"00582-035","RO","Seringueiras","35","-11.7671166352298","-63.03876099770721","00582"
"90280-028","MT","Confresa","28","-10.6407305766948","-51.57103361786151","90280"
"47139-264","MG","Jequitibá","264","-19.23767350959","-44.0280763937239","47139"
"63878-107","SP","Dourado","107","-22.1131671957084","-48.3162358063433","63878"
"81043-035","SC","Cordilheira Alta","35","-26.9850812915617","-52.6032512708199","81043"
"59030-059","RJ","São Pedro da Aldeia","59","-22.8372031940801","-42.1035286701542","59030"
"58084-043","RJ","Varre-Sai","43","-20.9292976632408","-41.8632953882988","58084"
"58335-126","RJ","Duque de Caxias","126","-22.681990","-43.288688","58335"
"66559-289","SP","Luiziânia","289","-21.6736029639148","-50.3276394896385","66559"
"71072-253","SP","São Paulo","253","-23.5405166","-46.5706109","71072"
"68977-219","SP","Poá","219","-23.5286265669703","-46.3462203886587","68977"
"78131-023","PR","Ribeirão Claro","23","-23.1962854615021","-49.7563505190838","78131"
"78417-063","PR","Santa Cecília do Pavão","63","-23.51289571140291","-50.7828651430903","78417"
"64556-338","SP","Guará","338","-20.4275570610844","-47.8245929501746","64556"
"19313-014","PB","Bananeiras","14","-6.74963727477943","-35.6315999027685","19313"
"08737-068","MA","Pirapemas","68","-3.72532906599431","-44.2282808838415","08737"
"14133-039","CE","Independência","39","-5.3980281000839","-40.3093482605607","14133"
"66214-196","SP","Junqueirópolis","196","-21.5112757490367","-51.43401195054899","66214"
"94951-029","GO","Nova Roma","29","-13.7429057516562","-46.8903259703719","94951"
"21075-025","PB","Nova Palmeira","25","-6.67660584242661","-36.4187129743523","21075"
"27677-029","AL","Jacaré dos Homens","29","-9.63665882800376","-37.2078334090177","27677"
"91847-046","MS","Paranhos","46","-23.8968696607807","-55.4330304573901","91847"
"69795-110","SP","Rio Claro","110","-22.4135968","-47.5637762","69795"
"00299-029","RO","Rolim de Moura","29","-11.7195064","-61.7739728","00299"
"41157-309","MG","Três Marias","309","-18.2059212234568","-45.22573524674151","41157"
"92851-106","GO","Caçu","106","-18.5630506233339","-51.13352861361999","92851"
"25232-113","PE","Poção","113","-8.186227008674971","-36.7058798977192","25232"
"78670-100","PR","São Carlos do Ivaí","100","-23.3088474506736","-52.4771145893703","78670"
"83054-051","SC","Santa Cecília","51","-26.9569007438512","-50.4229016203405","83054"
"74810-009","PR","Campo Largo","9","-25.4684884","-49.5251381","74810"
"92274-145","GO","Aparecida de Goiânia","145","-16.8101639","-49.2416936","92274"
"36870-204","BA","Lençóis","204","-12.5640631152401","-41.3940311361177","36870"
"24694-017","PE","Lagoa de Itaenga","17","-7.93237817828189","-35.2928036525271","24694"
"93149-077","GO","Guaraíta","77","-15.6294278841186","-50.0317779844947","93149"
"90158-047","MS","Anaurilândia","47","-22.1826502672884","-52.7181693586844","90158"
"38857-108","BA","São Gonçalo dos Campos","108","-12.4303098038417","-38.949772430601","38857"
"67890-276","SP","Osasco","276","-23.5589265","-46.7765432","67890"
"37010-091","BA","Maiquinique","91","-15.6197717020878","-40.2605151185559","37010"
"97012-021","DF","Brasília","21","-15.8683149","-48.0173054","97012"
"74179-130","PR","Ampére","130","-25.9170684645403","-53.4732567447246","74179"
"07781-100","MA","Junco do Maranhão","100","-1.87460959744098","-46.0707260732137","07781"
"09113-060","MA","São Domingos do Maranhão","60","-5.56564200000001","-44.3928792568666","09113"
"45870-024","MG","Ibertioga","24","-21.4294724813989","-43.9681238350753","45870"
"58173-097","RJ","Cambuci","97","-21.577276709013","-41.9086360046562","58173"
"17655-012","RN","Nova Cruz","12","-6.48006479180289","-35.4323003945869","17655"
"08796-054","MA","Presidente Dutra","54","-5.28237425758561","-44.4929188624246","08796"
"90670-039","MT","Cuiabá","39","-15.553267","-56.044041","90670"
"71331-134","SP","Serra Negra","134","-22.6126935211893","-46.7017913807122","71331"
"88307-067","RS","Doutor Ricardo","67","-29.099031060158","-51.9849043921162","88307"
"17450-060","RN","Marcelino Vieira","60","-6.293549787584151","-38.1666126187356","17450"
"95753-113","GO","Sanclerlândia","113","-16.2006630823665","-50.3158669330706","95753"
"31771-020","SE","Malhador","20","-10.6600442405209","-37.3114599440126","31771"
"43710-313","MG","Contagem","313","-19.9417966","-44.04140049999999","43710"
"85545-089","RS","Alegria","89","-27.8372999555906","-54.0573664131385","85545"
"91081-043","MT","Ipiranga do Norte","43","-12.2368419997845","-56.1597931355503","91081"
"64351-047","SP","Garça","47","-22.2107094893391","-49.656529935058","64351"
"17612-002","RN","Natal","2","-5.8161144","-35.2031038","17612"
"27197-048","AL","Boca da Mata","48","-9.6451445669605","-36.2117249001431","27197"
"46159-343","MG","Ingaí","343","-21.4037168140959","-44.9224226367292","46159"
"71072-375","SP","São Paulo","375","-23.6103129","-46.4758011","71072"
"15156-050","CE","Pentecoste","50","-3.7962667360296","-39.267008731469","15156"
"75787-103","PR","Sulina","103","-25.6996322437846","-52.71659652036269","75787"
"00019-001","RO","Guajará-Mirim","1","-10.7738837403235","-65.3239518196923","00019"
"84654-142","PR","Douradina","142","-23.3819072154777","-53.2964486552293","84654"
"07048-070","MA","Alto Alegre do Pindaré","70","-3.66517037433273","-45.84207961617049","07048"
"58122-138","RJ","Queimados","138","-22.7174304894191","-43.5556695470827","58122"
"69159-194","SP","Porto Ferreira","194","-21.8583625043474","-47.481409643358","69159"
"69671-382","SP","Ribeirão Pires","382","-23.714267","-46.415459","69671"
"38113-112","BA","Prado","112","-17.3295639888475","-39.2292384211691","38113"
"93734-147","GO","Goiânia","147","-16.6901597","-49.2754142","93734"
"43974-059","MG","Córrego do Bom Jesus","59","-22.6299218867201","-46.017909207626","43974"
"92312-103","GO","Araçu","103","-16.3543348060197","-49.6816820506526","92312"
"63436-021","SP","Colômbia","21","-20.171558842724","-48.6874841798296","63436"
"58696-158","RJ","Nova Iguaçu","158","-22.758754","-43.4579263","58696"
"28398-043","AL","Pindoba","43","-9.47621079949462","-36.2865406443458","28398"
"02020-045","AM","Guajará","45","-7.54777441458756","-72.58243053833959","02020"
"53210-121","MG","Senhora do Porto","121","-18.8980080193896","-43.0817557207791","53210"
"70718-118","SP","Santos","118","-23.9352198","-46.3300685","70718"
"38938-044","BA","Sátiro Dias","44","-11.600809045043","-38.5913537821245","38938"
"75019-007","PR","Cerro Azul","7","-24.8189473020665","-49.2603168259064","75019"
"12025-005","PI","São João da Varjota","5","-6.91901783829745","-41.8637422049467","12025"
"54097-339","MG","Urucânia","339","-20.3508704151039","-42.7412284517106","54097"
"25216-144","PE","Petrolina","144","-9.400236","-40.49650800000001","25216"
"69590-107","SP","Ribeirão Bonito","107","-22.0649346633625","-48.1777057541408","69590"
"40762-094","MG","São João do Pacuí","94","-16.538375144039","-44.5295709891001","40762"
"43133-169","MG","Central de Minas","169","-18.7574605371077","-41.3104050536671","43133"
"58076-091","RJ","Barra Mansa","91","-22.5473906","-44.15922399999999","58076"
"81701-039","SC","Chapadão do Lageado","39","-27.5852982504261","-49.5443259548905","81701"
"73172-025","TO","Novo Jardim","25","-11.8158750497703","-46.6307872958899","73172"
"55034-033","MS","Japorã","33","-23.89406695076231","-54.4034847428654","55034"
"14010-074","CE","Guaraciaba do Norte","74","-4.16245106700362","-40.7526331779113","14010"
"19763-062","PB","Alcantil","62","-7.74147703804435","-36.0606043308864","19763"
"19780-062","PB","Barra de Santana","62","-7.52283378039378","-35.9963140811176","19780"
"86940-079","RS","Manoel Viana","79","-29.5805371818348","-55.491662539453","86940"
"68578-089","SP","Piedade","89","-23.7142022223046","-47.41801515093099","68578"
"58971-135","RJ","São Gonçalo","135","-22.830271","-43.026337","58971"
"88765-127","RS","Senador Salgado Filho","127","-28.0274895006135","-54.5454030325181","88765"
"70513-116","SP","Santa Rita do Passa Quatro","116","-21.707144009351","-47.4789808517864","70513"
"24473-073","PE","Itacuruba","73","-8.72451506450644","-38.6863416893124","24473"
"98272-017","RS","Fortaleza dos Valos","17","-28.7878829701972","-53.2355232639118","98272"
"85766-067","RS","Relvado","67","-29.1122786653231","-52.07294855429661","85766"
"22195-012","PB","Serraria","12","-6.817088942624629","-35.6441425707571","22195"
"61514-232","SP","Aparecida d'Oeste","232","-20.4508453719309","-50.8856157061664","61514"
"16675-024","RN","Equador","24","-6.94584274884802","-36.7164124288599","16675"
"71072-398","SP","São Paulo","398","-23.4982219","-46.4531825","71072"
"75540-045","PR","Porto Barreiro","45","-25.5451856376523","-52.40478676271259","75540"
"27553-053","AL","Flexeiras","53","-9.273235459744919","-35.7243716385672","27553"
"48712-100","MG","Morro da Garça","100","-18.5472184623685","-44.6035310348425","48712"
"45578-110","MG","Grupiara","110","-18.4930238017415","-47.7247984350215","45578"
"90255-017","MT","Arenápolis","17","-14.4555216655191","-56.8444892395472","90255"
"82856-046","SC","Rio do Campo","46","-26.9423084303659","-50.1395889130392","82856"
"90905-053","MT","Bom Jesus do Araguaia","53","-12.1735983432637","-51.5036392318627","90905"
"75744-136","PR","Rosário do Ivaí","136","-24.2535525551983","-51.2499448251477","75744"
"07137-109","MA","Anajatuba","109","-3.25755484202004","-44.6206700277629","07137"
"86932-050","RS","Charqueadas","50","-29.9568003622277","-51.6250060521847","86932"
"08621-092","MA","Vila Nova dos Martírios","92","-5.18351151903426","-48.138926482601","08621"
"21270-032","PB","Piancó","32","-7.1925698757626","-37.926519001178","21270"
"10251-035","PI","Barreiras do Piauí","35","-9.921246826422401","-45.4777877054503","10251"
"24759-094","PE","Lajedo","94","-8.6628568655581","-36.3214966175308","24759"
"21830-029","PB","São João do Tigre","29","-8.08104288910179","-36.8457433215685","21830"
"48011-318","MG","Marilac","318","-18.5049724105216","-42.0816889525875","48011"
"40622-187","MG","Rosário da Limeira","187","-20.9812982007306","-42.5060599702183","40622"
"07099-011","MA","Alto Parnaíba","11","-9.10836593189579","-45.92734401333839","07099"
"62898-032","SP","Cajuru","32","-21.2747174993615","-47.3042661167969","62898"
"43435-191","MG","Conceição das Pedras","191","-22.1611757081197","-45.4536794627182","43435"
"22276-043","PB","Sumé","43","-7.6710536148971","-36.8802761457321","22276"
"07528-075","MA","Feira Nova do Maranhão","75","-6.96313554039992","-46.68735521596379","07528"
"58653-143","RJ","Niterói","143","-22.880738","-43.101297","58653"
"66931-302","SP","Meridiano","302","-20.3541099025515","-50.18183183990509","66931"
"90824-057","MT","Gaúcha do Norte","57","-13.1880431890901","-53.26151867194759","90824"
"87564-032","RS","Sagrada Família","32","-27.7067309897243","-53.1356517180311","87564"
"64033-370","SP","Embu-Guaçu","370","-23.8318291030733","-46.8171088725496","64033"
"41165-147","MG","Nova Porteirinha","147","-15.8022101962361","-43.3025512295159","41165"
"93408-055","GO","Bonópolis","55","-13.6497465481339","-49.8371838013902","93408"
"34355-050","BA","Cansanção","50","-10.666749914522","-39.4966050064607","34355"
"45195-202","MG","Florestal","202","-19.8945182318928","-44.4301155625427","45195"
"73458-023","TO","Tupirama","23","-8.98056954912582","-48.20668480306409","73458"
"05517-011","PA","São Miguel do Guamá","11","-1.61713591443717","-47.48240894448921","05517"
"98850-028","MT","Porto Alegre do Norte","28","-10.8775484765652","-51.6308798239408","98850"
"05010-022","PA","Óbidos","22","-1.90923549581828","-55.5163235097126","05010"
"89168-104","RS","Coqueiro Baixo","104","-29.1792568004532","-52.09460255964031","89168"
"75140-038","PR","Boa Ventura de São Roque","38","-24.8785175854321","-51.53937383703149","75140"
"90301-052","MT","Lambari D'Oeste","52","-15.3155012395628","-58.0058251786064","90301"
"60011-173","RJ","Rio de Janeiro","173","-22.921155","-43.256539","60011"
"35599-024","BA","Ibirataia","24","-14.0672690803652","-39.6409188889228","35599"
"61441-270","SP","Saltinho","270","-22.8433674971477","-47.6782883887976","61441"
"33898-094","BA","Brotas de Macaúbas","94","-12.0026355369198","-42.6246912893431","33898"
"92401-013","TO","Nova Rosalândia","13","-10.5668711389917","-48.90618072450231","92401"
"89230-109","RS","Tapera","109","-28.6249501903715","-52.8714671740768","89230"
"11851-059","PI","Santa Luz","59","-8.944624216604639","-44.1295859062574","11851"
"63134-303","SP","Carapicuíba","303","-23.520037","-46.837156","63134"
"38270-114","BA","Riachão do Jacuípe","114","-11.8059790255453","-39.3830354938567","38270"
"41017-021","MG","Bambuí","21","-20.0118916908153","-45.9790448126104","41017"
"22292-020","PB","Tacima","20","-6.48891694224255","-35.6388366564942","22292"
"81736-033","SC","Jaguaruna","33","-28.6249636884254","-49.0491289860852","81736"
"07595-030","MA","Cedral","30","-1.99791592550575","-44.5307895278055","07595"
"16217-032","RN","Areia Branca","32","-4.95289763039917","-37.1312717156955","16217"
"36196-185","BA","Itanagra","185","-12.2681631434627","-38.0381809411938","36196"
"91235-005","MS","Nova Andradina","5","-22.2487593120915","-53.3515738148688","91235"
"36455-058","BA","Ituaçu","58","-13.8074071457301","-41.3109815271264","36455"
"80730-008","SC","Canoinhas","8","-26.1788070135048","-50.3978487118933","80730"
"85294-155","RS","Augusto Pestana","155","-28.5133519883222","-53.98947008072259","85294"
"32131-019","SE","Propriá","19","-10.2082073149841","-36.8420993590988","32131"
"19445-034","PB","São José de Princesa","34","-7.74296945051168","-38.0988027202559","19445"
"20710-027","PB","Livramento","27","-7.379002822517659","-36.94862930397","20710"
"23329-082","PE","Santa Filomena","82","-8.160511166999351","-40.615775185024","23329"
"56090-043","ES","Apiacá","43","-21.1564478846261","-41.5633797608618","56090"
"51039-088","MG","Rio Espera","88","-20.8580800980127","-43.4653334003173","51039"
"64017-391","SP","Embu das Artes","391","-23.658365","-46.805151","64017"
"56189-025","ES","Sooretama","25","-19.1919496272697","-40.0964908071322","56189"
"71455-357","SP","Sorocaba","357","-23.454990","-47.482229","71455"
"19909-065","PB","Areia de Baraúnas","65","-7.12369501279106","-36.9435079583787","19909"
"88277-167","RS","Rondinha","167","-27.8318159695896","-52.9061601564804","88277"
"12599-078","PI","Porto Alegre do Piauí","78","-6.97172468641863","-44.1948371018939","12599"
"50458-217","MG","Porto Firme","217","-20.6682669687439","-43.0914109084357","50458"
"11410-012","PI","Domingos Mourão","12","-4.25343363435254","-41.2718814488667","11410"
"28452-014","AL","Porto Calvo","14","-9.052448313843","-35.3983344556037","28452"
"58696-156","RJ","Nova Iguaçu","156","-22.758754","-43.4579263","58696"
"31496-008","SE","Gararu","8","-9.96735146759784","-37.0843724853204","31496"
"93475-015","TO","Dueré","15","-11.3412854164155","-49.26587591616279","93475"
"15750-058","CE","Umari","58","-6.64724437499257","-38.7013257158543","15750"
"85073-005","RS","Alegrete","5","-29.78204320831051","-55.7958701453331","85073"
"42285-177","MG","Jenipapo de Minas","177","-17.0804230775619","-42.2560474559329","42285"
"86703-146","RS","Engenho Velho","146","-27.7085865188878","-52.9119205030241","86703"
"81558-025","SC","Irineópolis","25","-26.2366129363535","-50.80390004981311","81558"
"89273-055","RS","Taquara","55","-29.6505131034641","-50.7811686192558","89273"
"12106-039","PI","Assunção do Piauí","39","-5.864914494335539","-41.0508299964828","12106"
"04421-101","PA","Novo Repartimento","101","-4.24814849986041","-49.9486382443426","04421"
"00035-006","RO","Porto Velho","6","-8.7613646","-63.8392389","00035"
"75485-045","PR","Marquinho","45","-25.1122123606045","-52.2569829527735","75485"
"67512-072","SP","Neves Paulista","72","-20.8439161551994","-49.6304748513402","67512"
"27537-038","AL","Feliz Deserto","38","-10.2923806195341","-36.3071875176995","27537"
"21318-005","PB","Pilar","5","-7.259887984679569","-35.2598804076248","21318"
"12653-070","PI","Santo Antônio dos Milagres","70","-6.04671759609513","-42.7111968050238","12653"
"61590-050","SP","Aramina","50","-20.0899442065158","-47.7860130410377","61590"
"49891-042","MG","Pequeri","42","-21.8369041278565","-43.126286174621","49891"
"49956-291","MG","Perdizes","291","-19.3386575242965","-47.2920084470812","49956"
"71072-255","SP","São Paulo","255","-23.5025288","-46.6584923","71072"
"92410-034","TO","Araguaína","34","-7.1857335","-48.2123825","92410"
"43354-257","MG","Coluna","257","-18.2204050345968","-42.8436545122746","43354"
"79715-129","PR","Santa Helena","129","-24.8570958299164","-54.3364531522835","79715"
"25950-089","PE","Tacaratu","89","-9.10569964399888","-38.1534611596796","25950"
"96636-034","TO","Nova Olinda","34","-7.63331491044374","-48.42480679001639","96636"
"87467-042","RS","Porto Mauá","42","-27.5786353592823","-54.671951891498","87467"
"70459-187","SP","Santana da Ponte Pensa","187","-20.2526022550572","-50.7984038446256","70459"
"47430-156","MG","Lagoa da Prata","156","-20.0237653287134","-45.54169203207031","47430"
"38342-152","BA","Ribeirão do Largo","152","-15.4640596330281","-40.7438597619248","38342"
"31690-012","SE","Lagarto","12","-10.9153009695109","-37.666353409722","31690"
"08214-062","MA","Loreto","62","-7.09445416515065","-45.1392416375273","08214"
"50318-116","MG","Planura","116","-20.1386632014177","-48.69991885517899","50318"
"27855-001","AL","Maceió","1","-9.618295999999999","-35.7394826","27855"
"09210-003","MA","São Luís","3","-2.5311484","-44.2582684","09210"
"94838-009","TO","Nazaré","9","-6.37255796907719","-47.6669771825263","94838"
"92606-035","TO","Santa Tereza do Tocantins","35","-10.2823615274869","-47.8062883215081","92606"
"86169-062","RS","Nova Alvorada","62","-28.6765644320029","-52.16713391729131","86169"
"56812-039","ES","Pinheiros","39","-18.4133233430519","-40.2177280801912","56812"
"32310-014","SE","Santo Amaro das Brotas","14","-10.7820113822785","-37.0563110976557","32310"
"09296-099","MA","Sítio Novo","99","-5.870629891120089","-46.6949833406808","09296"
"00159-027","RO","Jaru","27","-10.4391015","-62.4623028","00159"
"10430-096","PI","Campo Maior","96","-4.8279003","-42.1646677","10430"
"58190-099","RJ","Campos dos Goytacazes","99","-21.7547428","-41.326182","58190"
"87084-008","RS","Monte Belo do Sul","8","-29.1599412223261","-51.6315592453903","87084"
"92649-039","GO","São Luiz do Norte","39","-14.862078910842","-49.3319358805783","92649"
"07498-064","MA","Cândido Mendes","64","-1.45388910848007","-45.7372683655917","07498"
"80896-098","SC","Criciúma","98","-28.6749648","-49.3716516","80896"
"40118-067","MG","Água Boa","67","-17.9910530490867","-42.3896432300847","40118"
"09059-073","MA","São Benedito do Rio Preto","73","-3.33276600362059","-43.5299918701629","09059"
"98612-008","MT","Alto Taquari","8","-17.8347436501711","-53.2819931222741","98612"
"98299-155","RS","Jóia","155","-28.6456235338337","-54.11596489702111","98299"
"60011-234","RJ","Rio de Janeiro","234","-22.8713574","-43.4611319","60011"
"90247-016","MT","São José do Xingu","16","-10.8002641626848","-52.7397936398726","90247"
"98230-011","RS","Bom Princípio","11","-29.4944851141365","-51.35551909739599","98230"
"63797-366","SP","Divinolândia","366","-21.6616215053887","-46.73686978679239","63797"
"52779-125","MG","São Pedro da União","125","-21.1334584949064","-46.6213268893432","52779"
"84905-063","RS","Jaquirana","63","-28.8805675905509","-50.3580367222002","84905"
"28916-051","AL","Senador Rui Palmeira","51","-9.46339144867669","-37.4536462478126","28916"
"70750-174","SP","São Bernardo do Campo","174","-23.7067079","-46.5474141","70750"
"80888-078","SC","Formosa do Sul","78","-26.6485233774967","-52.7934500252739","80888"
"24236-104","PE","Goiana","104","-7.5615083","-35.001616","24236"
"80250-027","SC","Araquari","27","-26.3759515533225","-48.69270741192941","80250"
"47775-004","MG","Machacalis","4","-17.0773703523579","-40.7204221322494","47775"
"41238-027","MG","Belo Horizonte","27","-19.868273","-43.911989","41238"
"07552-055","MA","Carutapera","55","-1.20060199996041","-46.02315083460499","07552"
"50610-217","MG","Presidente Bernardes","217","-20.7656775003951","-43.1900555792424","50610"
"89613-003","RS","Viadutos","3","-27.5709530593094","-52.0237987496513","89613"
"62448-107","SP","Trabiju","107","-22.0380736464031","-48.3401833937535","62448"
"65854-178","SP","Jaborandi","178","-20.6872244987516","-48.4134449206286","65854"
"41556-072","MG","Bom Jesus do Galho","72","-19.8244720389406","-42.3157265526063","41556"
"01112-006","AC","Epitaciolândia","6","-11.0282398276016","-68.7448680666749","01112"
"00779-034","RO","Buritis","34","-10.209805406906","-63.82967879175651","00779"
"92770-005","GO","Buriti Alegre","5","-18.1330550490153","-49.0400651408771","92770"
"60011-022","RJ","Rio de Janeiro","22","-22.845758","-43.3239519","60011"
"92088-024","TO","Caseara","24","-9.267406218603171","-49.9486922677787","92088"
"86479-004","RS","Espumoso","4","-28.7314451417484","-52.841926970944","86479"
"56758-028","ES","Muqui","28","-20.9536923089115","-41.3462139983691","56758"
"66796-157","SP","Mariápolis","157","-21.7944933658162","-51.1828975550503","66796"
"45470-205","MG","Gonçalves","205","-22.6576191864474","-45.85659203846711","45470"
"68110-012","SP","Paraguaçu Paulista","12","-22.4177110193342","-50.5750285304782","68110"
"09318-072","MA","Sucupira do Norte","72","-6.47828444740855","-44.1886027051903","09318"
"42137-060","MG","Cambuquira","60","-21.8554097669598","-45.2925205085194","42137"
"04260-061","PA","Água Azul do Norte","61","-6.80494886718307","-50.4852745072531","04260"
"69493-167","SP","Regente Feijó","167","-22.2202340922408","-51.3031489766821","69493"
"51870-024","MG","Santa Rita de Ibitipoca","24","-21.5612300787996","-43.9167605187734","51870"
"79570-118","PR","Céu Azul","118","-25.149761208586","-53.85726938306739","79570"
"65536-054","SP","Itapira","54","-22.4360054986676","-46.8212480111337","65536"
"04367-089","PA","Terra Santa","89","-2.10811447366957","-56.4909047722432","04367"
"41564-169","MG","São Félix de Minas","169","-18.5861055938846","-41.490352828828","41564"
"13412-005","CE","Baturité","5","-4.33120515626626","-38.8800213756291","13412"
"74241-115","PR","Cruzeiro do Iguaçu","115","-25.6165692695503","-53.1268226637842","74241"
"80578-006","SC","Caçador","6","-26.7753476719588","-51.0190347589981","80578"
"96199-005","TO","Tocantínia","5","-9.558147733696339","-48.3758796714267","96199"
"37494-109","BA","Mutuípe","109","-13.2293733232608","-39.5041638520156","37494"
"93513-118","GO","Estrela do Norte","118","-13.8670273947652","-49.0734010835998","93513"
"47333-153","MG","Juiz de Fora","153","-21.701415","-43.430626","47333"
"69078-224","SP","Pontes Gestal","224","-20.182363105598","-49.7035523558339","69078"
"74756-169","PR","Campina da Lagoa","169","-24.5949565813188","-52.8135641546009","74756"
"36676-147","BA","Jitaúna","147","-14.0174286974657","-39.8896321766671","36676"
"19801-062","PB","Caturité","62","-7.41961832048838","-36.0206588240689","19801"
"17876-040","RN","Pau dos Ferros","40","-6.11473183845001","-38.2032615200836","17876"
"58530-055","RJ","Maricá","55","-22.9169553367237","-42.819824114827","58530"
"41718-050","MG","Brasília de Minas","50","-16.2058726883347","-44.4275330930915","41718"
"74250-179","PR","Apucarana","179","-23.5618321","-51.4699468","74250"
"86274-012","RS","Dom Feliciano","12","-30.7085984254861","-52.10393357967799","86274"
"97012-006","DF","Brasília","6","-15.650674","-47.7918599","97012"
"74187-128","PR","Brasilândia do Sul","128","-24.1938462804714","-53.52404181355671","74187"
"77771-197","PR","Ponta Grossa","197","-25.077955","-50.153535","77771"
"43753-094","MG","Coração de Jesus","94","-16.6893234471669","-44.3584952946502","43753"
"92878-006","GO","Caiapônia","6","-16.9534576698388","-51.80947977713149","92878"
"91758-039","MS","Deodápolis","39","-22.2729491416043","-54.1611832428627","91758"
"21792-069","PB","São Bento","69","-6.48930754057923","-37.449349664422","21792"
"50059-024","MG","Piedade do Rio Grande","24","-21.4697328729915","-44.2025017471596","50059"
"14630-076","CE","Mauriti","76","-7.38739799975908","-38.772795438031","14630"
"44075-088","MG","Cristiano Otoni","88","-20.8408523324308","-43.7978363805106","44075"
"88285-086","RS","Esperança do Sul","86","-27.3599436080705","-53.9927678151195","88285"
"04383-091","PA","Novo Progresso","91","-7.03483591305845","-55.4198701179784","04383"
"08176-066","MA","Lago Verde","66","-4.0387112951439","-44.9376352319942","08176"
"88064-162","RS","Vale do Sol","162","-29.6088279857379","-52.6813545006574","88064"
"40363-142","MG","Limeira do Oeste","142","-19.5477771587003","-50.5752903741881","40363"
"92096-093","GO","Aloândia","93","-17.7249088536078","-49.48232110664059","92096"
"10626-037","PI","Bela Vista do Piauí","37","-7.97218531931235","-41.8713796439709","10626"
"95672-112","GO","Rianápolis","112","-15.4424666677754","-49.5101169941166","95672"
"48232-254","MG","Matutina","254","-19.2266120627578","-45.9835170334863","48232"
"39926-166","BA","São José da Vitória","166","-15.0781782109035","-39.338920502937","39926"
"17337-017","RN","Lajes","17","-5.69883035859495","-36.242735126413","17337"
"23752-130","PE","Capoeiras","130","-8.736142679458951","-36.6237980172929","23752"
"58300-255","RJ","Carapebus","255","-22.182594726707","-41.6640105958578","58300"
"74721-092","PR","Rancho Alegre D'Oeste","92","-24.3090100116558","-52.95112583983439","74721"
"73369-020","TO","Jaú do Tocantins","20","-12.6529263688668","-48.59460829272481","73369"
"56871-042","ES","Rio Novo do Sul","42","-20.8645861490581","-40.9362283554512","56871"
"42552-220","MG","Capitólio","220","-20.6146635988751","-46.0545138880806","42552"
"37737-111","BA","Paramirim","111","-13.4424266567281","-42.240648777677","37737"
"15636-091","CE","Tabuleiro do Norte","91","-5.24380386970538","-38.129737128172","15636"
"58335-079","RJ","Duque de Caxias","79","-22.728723","-43.321922","58335"
"19453-042","PB","Bom Jesus","42","-6.81795765097448","-38.6551428070451","19453"
"86720-141","RS","Garruchos","141","-28.1894767892825","-55.6340719501044","86720"
"38822-072","BA","São Félix do Coribe","72","-13.4042182493669","-44.1968725574679","38822"
"24112-067","PE","Flores","67","-7.86171447467479","-37.9714561137782","24112"
"43095-080","MG","Caxambu","80","-21.9793115391745","-44.9314985913756","43095"
"15458-054","CE","Santa Quitéria","54","-4.33327049985764","-40.153507813582","15458"
"60011-180","RJ","Rio de Janeiro","180","-22.919591","-43.367600","60011"
"81914-077","SC","Lebon Régis","77","-26.9291140104077","-50.69182786444809","81914"
"17574-015","RN","Monte das Gameleiras","15","-6.439466016311579","-35.7866071234666","17574"
"78093-140","PR","Renascença","140","-26.1562209287958","-52.97216201169879","78093"
"41149-169","MG","Nova Belém","169","-18.4940908202155","-41.103687832357","41149"
"41009-050","MG","Luislândia","50","-16.1153114856566","-44.5860484270339","41009"
"85618-143","RS","Cachoeirinha","143","-29.9537000082","-51.0908838365","85618"
"68993-077","SP","Poloni","77","-20.7858577499536","-49.8138949066775","68993"
